[{
    "id": "/api/v1/locations/0",
    "longitude": 12.376187,
    "latitude": 45.421611,
    "city": "Mableton",
    "country": "US",
    "country_code": "USA"
}, {
    "id": "/api/v1/locations/1",
    "longitude": -95.788826,
    "latitude": 40.68973,
    "city": "Percival",
    "country": "US",
    "country_code": "USA"
}, {
    "id": "/api/v1/locations/2",
    "longitude": -120.115036,
    "latitude": 34.664684,
    "city": "Los Olivos",
    "country": "US",
    "country_code": "USA"
}, {
    "id": "/api/v1/locations/3",
    "longitude": -97.849655,
    "latitude": 28.793795,
    "city": "Kenedy",
    "country": "US",
    "country_code": "USA"
}, {
    "id": "/api/v1/locations/4",
    "longitude": -116.54269,
    "latitude": 33.802822,
    "city": "Palm Springs",
    "country": "US",
    "country_code": "USA"
}, {
    "id": "/api/v1/locations/5",
    "longitude": -95.402996,
    "latitude": 29.681085,
    "city": "Houston",
    "country": "US",
    "country_code": "USA"
}, {
    "id": "/api/v1/locations/6",
    "longitude": -112.185661,
    "latitude": 33.620773,
    "city": "Glendale",
    "country": "US",
    "country_code": "USA"
}, {
    "id": "/api/v1/locations/7",
    "longitude": -110.735886,
    "latitude": 46.933598,
    "city": "Neihart",
    "country": "US",
    "country_code": "USA"
}, {
    "id": "/api/v1/locations/8",
    "longitude": -121.77371,
    "latitude": 37.698349,
    "city": "Livermore",
    "country": "US",
    "country_code": "USA"
}, {
    "id": "/api/v1/locations/9",
    "longitude": -75.905832,
    "latitude": 42.130338,
    "city": "Binghamton",
    "country": "US",
    "country_code": "USA"
}, {
    "id": "/api/v1/locations/10",
    "longitude": -82.79705,
    "latitude": 41.44144,
    "city": "Sandusky",
    "country": "US",
    "country_code": "USA"
}, {
    "id": "/api/v1/locations/11",
    "longitude": -94.15933,
    "latitude": 30.03867,
    "city": "Beaumont",
    "country": "US",
    "country_code": "USA"
}, {
    "id": "/api/v1/locations/12",
    "longitude": -97.97284,
    "latitude": 35.50517,
    "city": "El Reno",
    "country": "US",
    "country_code": "USA"
}, {
    "id": "/api/v1/locations/13",
    "longitude": -122.42104,
    "latitude": 45.53678,
    "city": "Troutdale",
    "country": "US",
    "country_code": "USA"
}, {
    "id": "/api/v1/locations/14",
    "longitude": -88.062045,
    "latitude": 30.684177,
    "city": "Mobile",
    "country": "US",
    "country_code": "USA"
}, {
    "id": "/api/v1/locations/15",
    "longitude": -157.830789,
    "latitude": 21.281574,
    "city": "Honolulu",
    "country": "US",
    "country_code": "USA"
}, {
    "id": "/api/v1/locations/16",
    "longitude": 11.75432,
    "latitude": 54.1533,
    "city": "Harleigh",
    "country": "US",
    "country_code": "USA"
}, {
    "id": "/api/v1/locations/17",
    "longitude": -74.336525,
    "latitude": 44.304794,
    "city": "Saranac Lake",
    "country": "US",
    "country_code": "USA"
}, {
    "id": "/api/v1/locations/18",
    "longitude": -95.459631,
    "latitude": 29.768461,
    "city": "Houston",
    "country": "US",
    "country_code": "USA"
}, {
    "id": "/api/v1/locations/19",
    "longitude": -117.411305,
    "latitude": 47.686226,
    "city": "Spokane",
    "country": "US",
    "country_code": "USA"
}, {
    "id": "/api/v1/locations/20",
    "longitude": -69.64012,
    "latitude": 44.57059,
    "city": "Waterville",
    "country": "US",
    "country_code": "USA"
}, {
    "id": "/api/v1/locations/21",
    "longitude": -86.21178,
    "latitude": 42.621235,
    "city": "Fennville",
    "country": "US",
    "country_code": "USA"
}, {
    "id": "/api/v1/locations/22",
    "longitude": -92.28914,
    "latitude": 38.96124,
    "city": "Columbia",
    "country": "US",
    "country_code": "USA"
}, {
    "id": "/api/v1/locations/23",
    "longitude": -92.629776,
    "latitude": 38.14468,
    "city": "Osage Beach",
    "country": "US",
    "country_code": "USA"
}, {
    "id": "/api/v1/locations/24",
    "longitude": -81.02341,
    "latitude": 34.06241,
    "city": "Columbia",
    "country": "US",
    "country_code": "USA"
}, {
    "id": "/api/v1/locations/25",
    "longitude": -70.47717,
    "latitude": 43.36319,
    "city": "Kennebunkport",
    "country": "US",
    "country_code": "USA"
}, {
    "id": "/api/v1/locations/26",
    "longitude": -86.84786,
    "latitude": 20.90572,
    "city": "Mont Belvieu",
    "country": "US",
    "country_code": "USA"
}, {
    "id": "/api/v1/locations/27",
    "longitude": -97.60122,
    "latitude": 35.463253,
    "city": "Oklahoma City",
    "country": "US",
    "country_code": "USA"
}, {
    "id": "/api/v1/locations/28",
    "longitude": -80.09953,
    "latitude": 26.174261,
    "city": "Fort Lauderdale",
    "country": "US",
    "country_code": "USA"
}, {
    "id": "/api/v1/locations/29",
    "longitude": -93.26739,
    "latitude": 36.65133,
    "city": "Branson",
    "country": "US",
    "country_code": "USA"
}, {
    "id": "/api/v1/locations/30",
    "longitude": -92.010704,
    "latitude": 43.56077,
    "city": "Harmony",
    "country": "US",
    "country_code": "USA"
}, {
    "id": "/api/v1/locations/31",
    "longitude": null,
    "latitude": null,
    "city": "Boston",
    "country": "US",
    "country_code": "USA"
}, {
    "id": "/api/v1/locations/32",
    "longitude": null,
    "latitude": null,
    "city": "Boston",
    "country": "US",
    "country_code": "USA"
}, {
    "id": "/api/v1/locations/33",
    "longitude": null,
    "latitude": null,
    "city": "Boston",
    "country": "US",
    "country_code": "USA"
}, {
    "id": "/api/v1/locations/34",
    "longitude": null,
    "latitude": null,
    "city": "Boston",
    "country": "US",
    "country_code": "USA"
}, {
    "id": "/api/v1/locations/35",
    "longitude": null,
    "latitude": null,
    "city": "Boston",
    "country": "US",
    "country_code": "USA"
}, {
    "id": "/api/v1/locations/36",
    "longitude": null,
    "latitude": null,
    "city": "Boston",
    "country": "US",
    "country_code": "USA"
}, {
    "id": "/api/v1/locations/37",
    "longitude": null,
    "latitude": null,
    "city": "Boston",
    "country": "US",
    "country_code": "USA"
}, {
    "id": "/api/v1/locations/38",
    "longitude": null,
    "latitude": null,
    "city": "Boston",
    "country": "US",
    "country_code": "USA"
}, {
    "id": "/api/v1/locations/39",
    "longitude": null,
    "latitude": null,
    "city": "Boston",
    "country": "US",
    "country_code": "USA"
}, {
    "id": "/api/v1/locations/40",
    "longitude": null,
    "latitude": null,
    "city": "Boston",
    "country": "US",
    "country_code": "USA"
}, {
    "id": "/api/v1/locations/41",
    "longitude": null,
    "latitude": null,
    "city": "Boston",
    "country": "US",
    "country_code": "USA"
}, {
    "id": "/api/v1/locations/42",
    "longitude": null,
    "latitude": null,
    "city": "Boston",
    "country": "US",
    "country_code": "USA"
}, {
    "id": "/api/v1/locations/43",
    "longitude": null,
    "latitude": null,
    "city": "Boston",
    "country": "US",
    "country_code": "USA"
}, {
    "id": "/api/v1/locations/44",
    "longitude": null,
    "latitude": null,
    "city": "Boston",
    "country": "US",
    "country_code": "USA"
}, {
    "id": "/api/v1/locations/45",
    "longitude": null,
    "latitude": null,
    "city": "Boston",
    "country": "US",
    "country_code": "USA"
}, {
    "id": "/api/v1/locations/46",
    "longitude": null,
    "latitude": null,
    "city": "Boston",
    "country": "US",
    "country_code": "USA"
}, {
    "id": "/api/v1/locations/47",
    "longitude": null,
    "latitude": null,
    "city": "Boston",
    "country": "US",
    "country_code": "USA"
}, {
    "id": "/api/v1/locations/48",
    "longitude": null,
    "latitude": null,
    "city": "Boston",
    "country": "US",
    "country_code": "USA"
}, {
    "id": "/api/v1/locations/49",
    "longitude": null,
    "latitude": null,
    "city": "Boston",
    "country": "US",
    "country_code": "USA"
}, {
    "id": "/api/v1/locations/50",
    "longitude": null,
    "latitude": null,
    "city": "Boston",
    "country": "US",
    "country_code": "USA"
}, {
    "id": "/api/v1/locations/51",
    "longitude": null,
    "latitude": null,
    "city": "Boston",
    "country": "US",
    "country_code": "USA"
}, {
    "id": "/api/v1/locations/52",
    "longitude": null,
    "latitude": null,
    "city": "Boston",
    "country": "US",
    "country_code": "USA"
}, {
    "id": "/api/v1/locations/53",
    "longitude": null,
    "latitude": null,
    "city": "Boston",
    "country": "US",
    "country_code": "USA"
}, {
    "id": "/api/v1/locations/54",
    "longitude": null,
    "latitude": null,
    "city": "Boston",
    "country": "US",
    "country_code": "USA"
}, {
    "id": "/api/v1/locations/55",
    "longitude": null,
    "latitude": null,
    "city": "Boston",
    "country": "US",
    "country_code": "USA"
}, {
    "id": "/api/v1/locations/56",
    "longitude": null,
    "latitude": null,
    "city": "Boston",
    "country": "US",
    "country_code": "USA"
}, {
    "id": "/api/v1/locations/57",
    "longitude": -95.488039,
    "latitude": 29.836717,
    "city": "Houston",
    "country": "US",
    "country_code": "USA"
}, {
    "id": "/api/v1/locations/58",
    "longitude": -78.0521,
    "latitude": 33.9534,
    "city": "Southport",
    "country": "US",
    "country_code": "USA"
}, {
    "id": "/api/v1/locations/59",
    "longitude": -89.13289,
    "latitude": 31.693611,
    "city": "Laurel",
    "country": "US",
    "country_code": "USA"
}, {
    "id": "/api/v1/locations/60",
    "longitude": -75.98443,
    "latitude": 36.84766,
    "city": "Virginia Beach",
    "country": "US",
    "country_code": "USA"
}, {
    "id": "/api/v1/locations/61",
    "longitude": 6.557915,
    "latitude": 51.295746,
    "city": "Terre Haute",
    "country": "US",
    "country_code": "USA"
}, {
    "id": "/api/v1/locations/62",
    "longitude": -87.020861,
    "latitude": 34.57757,
    "city": "Decatur",
    "country": "US",
    "country_code": "USA"
}, {
    "id": "/api/v1/locations/63",
    "longitude": -124.0607,
    "latitude": 44.63752,
    "city": "Newport",
    "country": "US",
    "country_code": "USA"
}, {
    "id": "/api/v1/locations/64",
    "longitude": -86.106875,
    "latitude": 42.78621,
    "city": "Holland",
    "country": "US",
    "country_code": "USA"
}, {
    "id": "/api/v1/locations/65",
    "longitude": -83.32794,
    "latitude": 44.407978,
    "city": "Oscoda",
    "country": "US",
    "country_code": "USA"
}, {
    "id": "/api/v1/locations/66",
    "longitude": -74.92503,
    "latitude": 40.189476,
    "city": "Langhorne",
    "country": "US",
    "country_code": "USA"
}, {
    "id": "/api/v1/locations/67",
    "longitude": 2.62598,
    "latitude": 39.5639,
    "city": "Clifton",
    "country": "US",
    "country_code": "USA"
}, {
    "id": "/api/v1/locations/68",
    "longitude": -76.13433,
    "latitude": 40.814148,
    "city": "Mahanoy City",
    "country": "US",
    "country_code": "USA"
}, {
    "id": "/api/v1/locations/69",
    "longitude": -77.485577,
    "latitude": 39.094056,
    "city": "Leesburg",
    "country": "US",
    "country_code": "USA"
}, {
    "id": "/api/v1/locations/70",
    "longitude": -84.27773,
    "latitude": 35.82745,
    "city": "Lenoir City",
    "country": "US",
    "country_code": "USA"
}, {
    "id": "/api/v1/locations/71",
    "longitude": -106.368201,
    "latitude": 39.6387,
    "city": "Vail",
    "country": "US",
    "country_code": "USA"
}, {
    "id": "/api/v1/locations/72",
    "longitude": -79.36981,
    "latitude": 34.43614,
    "city": "Dillon",
    "country": "US",
    "country_code": "USA"
}, {
    "id": "/api/v1/locations/73",
    "longitude": -105.22211,
    "latitude": 39.75622,
    "city": "Golden",
    "country": "US",
    "country_code": "USA"
}, {
    "id": "/api/v1/locations/74",
    "longitude": -77.355574,
    "latitude": 38.958709,
    "city": "Reston",
    "country": "US",
    "country_code": "USA"
}, {
    "id": "/api/v1/locations/75",
    "longitude": -112.182594,
    "latitude": 33.538586,
    "city": "Glendale",
    "country": "US",
    "country_code": "USA"
}, {
    "id": "/api/v1/locations/76",
    "longitude": -93.611822,
    "latitude": 33.683724,
    "city": "Hope",
    "country": "US",
    "country_code": "USA"
}, {
    "id": "/api/v1/locations/77",
    "longitude": -121.350807,
    "latitude": 38.00622,
    "city": "Stockton",
    "country": "US",
    "country_code": "USA"
}, {
    "id": "/api/v1/locations/78",
    "longitude": -94.57172,
    "latitude": 47.09124,
    "city": "Walker",
    "country": "US",
    "country_code": "USA"
}, {
    "id": "/api/v1/locations/79",
    "longitude": -120.17681,
    "latitude": 48.470364,
    "city": "Winthrop",
    "country": "US",
    "country_code": "USA"
}, {
    "id": "/api/v1/locations/80",
    "longitude": 11.251337,
    "latitude": 43.772349,
    "city": "Humeston",
    "country": "US",
    "country_code": "USA"
}, {
    "id": "/api/v1/locations/81",
    "longitude": -92.14079,
    "latitude": 37.8228,
    "city": "St. Robert",
    "country": "US",
    "country_code": "USA"
}, {
    "id": "/api/v1/locations/82",
    "longitude": -95.206568,
    "latitude": 29.773048,
    "city": "Houston",
    "country": "US",
    "country_code": "USA"
}, {
    "id": "/api/v1/locations/83",
    "longitude": -122.517879,
    "latitude": 37.929938,
    "city": "Corte Madera",
    "country": "US",
    "country_code": "USA"
}, {
    "id": "/api/v1/locations/84",
    "longitude": -122.22717,
    "latitude": 47.302352,
    "city": "Auburn",
    "country": "US",
    "country_code": "USA"
}, {
    "id": "/api/v1/locations/85",
    "longitude": -121.4938057,
    "latitude": 38.5802767,
    "city": "Sacramento",
    "country": "US",
    "country_code": "USA"
}, {
    "id": "/api/v1/locations/86",
    "longitude": -76.508315,
    "latitude": 42.436007,
    "city": "Ithaca",
    "country": "US",
    "country_code": "USA"
}, {
    "id": "/api/v1/locations/87",
    "longitude": -114.335838,
    "latitude": 48.391121,
    "city": "Whitefish",
    "country": "US",
    "country_code": "USA"
}, {
    "id": "/api/v1/locations/88",
    "longitude": -84.314667,
    "latitude": 33.843213,
    "city": "Atlanta",
    "country": "US",
    "country_code": "USA"
}, {
    "id": "/api/v1/locations/89",
    "longitude": -76.847257,
    "latitude": 39.176128,
    "city": "Columbia",
    "country": "US",
    "country_code": "USA"
}, {
    "id": "/api/v1/locations/90",
    "longitude": -123.37406,
    "latitude": 48.10485,
    "city": "Port Angeles",
    "country": "US",
    "country_code": "USA"
}, {
    "id": "/api/v1/locations/91",
    "longitude": -70.643174,
    "latitude": 44.96541,
    "city": "Rangeley",
    "country": "US",
    "country_code": "USA"
}, {
    "id": "/api/v1/locations/92",
    "longitude": -90.057002,
    "latitude": 37.967532,
    "city": "Sainte Genevieve",
    "country": "US",
    "country_code": "USA"
}, {
    "id": "/api/v1/locations/93",
    "longitude": -117.00283,
    "latitude": 34.89095,
    "city": "Barstow",
    "country": "US",
    "country_code": "USA"
}, {
    "id": "/api/v1/locations/94",
    "longitude": -80.84962,
    "latitude": 40.363297,
    "city": "Bloomingdale",
    "country": "US",
    "country_code": "USA"
}, {
    "id": "/api/v1/locations/95",
    "longitude": -83.891054,
    "latitude": 43.596927,
    "city": "Bay City",
    "country": "US",
    "country_code": "USA"
}, {
    "id": "/api/v1/locations/96",
    "longitude": -73.21555,
    "latitude": 44.47582,
    "city": "Burlington",
    "country": "US",
    "country_code": "USA"
}, {
    "id": "/api/v1/locations/97",
    "longitude": -80.072864,
    "latitude": 26.697607,
    "city": "West Palm Beach",
    "country": "US",
    "country_code": "USA"
}, {
    "id": "/api/v1/locations/98",
    "longitude": -89.34979,
    "latitude": 31.329254,
    "city": "Hattiesburg",
    "country": "US",
    "country_code": "USA"
}, {
    "id": "/api/v1/locations/99",
    "longitude": -70.81342,
    "latitude": 42.91046,
    "city": "Hampton",
    "country": "US",
    "country_code": "USA"
}, {
    "id": "/api/v1/locations/100",
    "longitude": -84.032555,
    "latitude": 44.180107,
    "city": "Prescott",
    "country": "US",
    "country_code": "USA"
}, {
    "id": "/api/v1/locations/101",
    "longitude": -114.8303,
    "latitude": 31.02996,
    "city": "Pittsville",
    "country": "US",
    "country_code": "USA"
}, {
    "id": "/api/v1/locations/102",
    "longitude": -102.561844,
    "latitude": 46.41884,
    "city": "Regent",
    "country": "US",
    "country_code": "USA"
}, {
    "id": "/api/v1/locations/103",
    "longitude": -87.955,
    "latitude": 41.81644,
    "city": "Westmont",
    "country": "US",
    "country_code": "USA"
}, {
    "id": "/api/v1/locations/104",
    "longitude": -85.225664,
    "latitude": 34.994744,
    "city": "Chattanooga",
    "country": "US",
    "country_code": "USA"
}, {
    "id": "/api/v1/locations/105",
    "longitude": -122.485944,
    "latitude": 48.781123,
    "city": "Bellingham",
    "country": "US",
    "country_code": "USA"
}, {
    "id": "/api/v1/locations/106",
    "longitude": -85.18146,
    "latitude": 35.250668,
    "city": "Soddy Daisy",
    "country": "US",
    "country_code": "USA"
}, {
    "id": "/api/v1/locations/107",
    "longitude": -93.129486,
    "latitude": 36.26049,
    "city": "Harrison",
    "country": "US",
    "country_code": "USA"
}, {
    "id": "/api/v1/locations/108",
    "longitude": -96.76286,
    "latitude": 44.31141,
    "city": "Brookings",
    "country": "US",
    "country_code": "USA"
}, {
    "id": "/api/v1/locations/109",
    "longitude": -102.33582,
    "latitude": 46.374714,
    "city": "Mott",
    "country": "US",
    "country_code": "USA"
}, {
    "id": "/api/v1/locations/110",
    "longitude": -110.70107,
    "latitude": 31.52159,
    "city": "Patagonia",
    "country": "US",
    "country_code": "USA"
}, {
    "id": "/api/v1/locations/111",
    "longitude": -107.872714,
    "latitude": 37.295963,
    "city": "Durango",
    "country": "US",
    "country_code": "USA"
}, {
    "id": "/api/v1/locations/112",
    "longitude": -109.08419,
    "latitude": 44.516968,
    "city": "Cody",
    "country": "US",
    "country_code": "USA"
}, {
    "id": "/api/v1/locations/113",
    "longitude": -108.58104,
    "latitude": 45.7522,
    "city": "Billings",
    "country": "US",
    "country_code": "USA"
}, {
    "id": "/api/v1/locations/114",
    "longitude": -97.06028,
    "latitude": 32.783764,
    "city": "Grand Prairie",
    "country": "US",
    "country_code": "USA"
}, {
    "id": "/api/v1/locations/115",
    "longitude": -76.758835,
    "latitude": 39.284878,
    "city": "Catonsville",
    "country": "US",
    "country_code": "USA"
}, {
    "id": "/api/v1/locations/116",
    "longitude": -110.909418,
    "latitude": 32.223615,
    "city": "Tucson",
    "country": "US",
    "country_code": "USA"
}, {
    "id": "/api/v1/locations/117",
    "longitude": -95.265008,
    "latitude": 32.322578,
    "city": "Tyler",
    "country": "US",
    "country_code": "USA"
}, {
    "id": "/api/v1/locations/118",
    "longitude": -84.127582,
    "latitude": 36.920051,
    "city": "Corbin",
    "country": "US",
    "country_code": "USA"
}, {
    "id": "/api/v1/locations/119",
    "longitude": -95.846871,
    "latitude": 36.265007,
    "city": "Owasso",
    "country": "US",
    "country_code": "USA"
}, {
    "id": "/api/v1/locations/120",
    "longitude": -122.50554,
    "latitude": 37.9443,
    "city": "Larkspur",
    "country": "US",
    "country_code": "USA"
}, {
    "id": "/api/v1/locations/121",
    "longitude": -122.480386,
    "latitude": 45.540782,
    "city": "Portland",
    "country": "US",
    "country_code": "USA"
}, {
    "id": "/api/v1/locations/122",
    "longitude": -82.171594,
    "latitude": 35.452157,
    "city": "Lake Lure",
    "country": "US",
    "country_code": "USA"
}, {
    "id": "/api/v1/locations/123",
    "longitude": -103.81389,
    "latitude": 44.48047,
    "city": "Spearfish",
    "country": "US",
    "country_code": "USA"
}, {
    "id": "/api/v1/locations/124",
    "longitude": -97.52609,
    "latitude": 42.19905,
    "city": "Pierce",
    "country": "US",
    "country_code": "USA"
}, {
    "id": "/api/v1/locations/125",
    "longitude": -122.35542,
    "latitude": 47.62332,
    "city": "Seattle",
    "country": "US",
    "country_code": "USA"
}, {
    "id": "/api/v1/locations/126",
    "longitude": -81.796281,
    "latitude": 26.683669,
    "city": "Fort Myers",
    "country": "US",
    "country_code": "USA"
}, {
    "id": "/api/v1/locations/127",
    "longitude": -87.25914,
    "latitude": 33.84603,
    "city": "Jasper",
    "country": "US",
    "country_code": "USA"
}, {
    "id": "/api/v1/locations/128",
    "longitude": -118.02875,
    "latitude": 33.858124,
    "city": "Buena Park",
    "country": "US",
    "country_code": "USA"
}, {
    "id": "/api/v1/locations/129",
    "longitude": -80.136986,
    "latitude": 26.10565,
    "city": "Fort Lauderdale",
    "country": "US",
    "country_code": "USA"
}, {
    "id": "/api/v1/locations/130",
    "longitude": -117.837279,
    "latitude": 33.67971,
    "city": "Irvine",
    "country": "US",
    "country_code": "USA"
}, {
    "id": "/api/v1/locations/131",
    "longitude": -94.29853,
    "latitude": 37.486855,
    "city": "Lamar",
    "country": "US",
    "country_code": "USA"
}, {
    "id": "/api/v1/locations/132",
    "longitude": -79.16931,
    "latitude": 41.83631,
    "city": "Warren",
    "country": "US",
    "country_code": "USA"
}, {
    "id": "/api/v1/locations/133",
    "longitude": -95.85734,
    "latitude": 46.82358,
    "city": "Detroit Lakes",
    "country": "US",
    "country_code": "USA"
}, {
    "id": "/api/v1/locations/134",
    "longitude": -108.727655,
    "latitude": 35.500383,
    "city": "Gallup",
    "country": "US",
    "country_code": "USA"
}, {
    "id": "/api/v1/locations/135",
    "longitude": -106.69324,
    "latitude": 35.08376,
    "city": "Albuquerque",
    "country": "US",
    "country_code": "USA"
}, {
    "id": "/api/v1/locations/136",
    "longitude": -118.99284,
    "latitude": 37.643192,
    "city": "Mammoth Lakes",
    "country": "US",
    "country_code": "USA"
}, {
    "id": "/api/v1/locations/137",
    "longitude": -76.53235,
    "latitude": 43.45161,
    "city": "Oswego",
    "country": "US",
    "country_code": "USA"
}, {
    "id": "/api/v1/locations/138",
    "longitude": -84.113282,
    "latitude": 36.580692,
    "city": "Jellico",
    "country": "US",
    "country_code": "USA"
}, {
    "id": "/api/v1/locations/139",
    "longitude": -90.899151,
    "latitude": 32.313601,
    "city": "Vicksburg",
    "country": "US",
    "country_code": "USA"
}, {
    "id": "/api/v1/locations/140",
    "longitude": -84.663734,
    "latitude": 45.027702,
    "city": "Gaylord",
    "country": "US",
    "country_code": "USA"
}, {
    "id": "/api/v1/locations/141",
    "longitude": -103.7299,
    "latitude": 44.376034,
    "city": "Deadwood",
    "country": "US",
    "country_code": "USA"
}, {
    "id": "/api/v1/locations/142",
    "longitude": -90.679098,
    "latitude": 38.800071,
    "city": "O Fallon",
    "country": "US",
    "country_code": "USA"
}, {
    "id": "/api/v1/locations/143",
    "longitude": -82.938687,
    "latitude": 32.487051,
    "city": "Dublin",
    "country": "US",
    "country_code": "USA"
}, {
    "id": "/api/v1/locations/144",
    "longitude": -117.150442,
    "latitude": 32.765811,
    "city": "San Diego",
    "country": "US",
    "country_code": "USA"
}, {
    "id": "/api/v1/locations/145",
    "longitude": -91.79702,
    "latitude": 43.291664,
    "city": "Decorah",
    "country": "US",
    "country_code": "USA"
}, {
    "id": "/api/v1/locations/146",
    "longitude": -97.13759,
    "latitude": 31.517883,
    "city": "Waco",
    "country": "US",
    "country_code": "USA"
}, {
    "id": "/api/v1/locations/147",
    "longitude": -121.435165,
    "latitude": 37.761502,
    "city": "Tracy",
    "country": "US",
    "country_code": "USA"
}, {
    "id": "/api/v1/locations/148",
    "longitude": -117.344319,
    "latitude": 33.16385,
    "city": "Carlsbad",
    "country": "US",
    "country_code": "USA"
}, {
    "id": "/api/v1/locations/149",
    "longitude": -89.95993,
    "latitude": 30.045267,
    "city": "New Orleans",
    "country": "US",
    "country_code": "USA"
}, {
    "id": "/api/v1/locations/150",
    "longitude": -123.930114,
    "latitude": 45.990632,
    "city": "Seaside",
    "country": "US",
    "country_code": "USA"
}, {
    "id": "/api/v1/locations/151",
    "longitude": -91.52781,
    "latitude": 31.61563,
    "city": "Ferriday",
    "country": "US",
    "country_code": "USA"
}, {
    "id": "/api/v1/locations/152",
    "longitude": -117.563225,
    "latitude": 34.068836,
    "city": "Ontario",
    "country": "US",
    "country_code": "USA"
}, {
    "id": "/api/v1/locations/153",
    "longitude": -81.41384,
    "latitude": 36.86846,
    "city": "Marion",
    "country": "US",
    "country_code": "USA"
}, {
    "id": "/api/v1/locations/154",
    "longitude": -99.484146,
    "latitude": 37.202297,
    "city": "Protection",
    "country": "US",
    "country_code": "USA"
}, {
    "id": "/api/v1/locations/155",
    "longitude": -92.66533,
    "latitude": 38.12717,
    "city": "Osage Beach",
    "country": "US",
    "country_code": "USA"
}, {
    "id": "/api/v1/locations/156",
    "longitude": -81.88776,
    "latitude": 35.330376,
    "city": "Forest City",
    "country": "US",
    "country_code": "USA"
}, {
    "id": "/api/v1/locations/157",
    "longitude": -109.547157,
    "latitude": 36.151195,
    "city": "Chinle",
    "country": "US",
    "country_code": "USA"
}, {
    "id": "/api/v1/locations/158",
    "longitude": -71.195984,
    "latitude": 43.577892,
    "city": "Wolfeboro",
    "country": "US",
    "country_code": "USA"
}, {
    "id": "/api/v1/locations/159",
    "longitude": -88.297515,
    "latitude": 39.681672,
    "city": "Arcola",
    "country": "US",
    "country_code": "USA"
}, {
    "id": "/api/v1/locations/160",
    "longitude": -71.46874,
    "latitude": 43.52591,
    "city": "Laconia",
    "country": "US",
    "country_code": "USA"
}, {
    "id": "/api/v1/locations/161",
    "longitude": -97.279915,
    "latitude": 32.788714,
    "city": "Haltom City",
    "country": "US",
    "country_code": "USA"
}, {
    "id": "/api/v1/locations/162",
    "longitude": -123.80287,
    "latitude": 39.426006,
    "city": "Fort Bragg",
    "country": "US",
    "country_code": "USA"
}, {
    "id": "/api/v1/locations/163",
    "longitude": -72.62555,
    "latitude": 42.12138,
    "city": "West Springfield",
    "country": "US",
    "country_code": "USA"
}, {
    "id": "/api/v1/locations/164",
    "longitude": null,
    "latitude": null,
    "city": "Casco",
    "country": "US",
    "country_code": "USA"
}, {
    "id": "/api/v1/locations/165",
    "longitude": -84.99398,
    "latitude": 40.439227,
    "city": "Portland",
    "country": "US",
    "country_code": "USA"
}, {
    "id": "/api/v1/locations/166",
    "longitude": -118.470236,
    "latitude": 40.185058,
    "city": "Lovelock",
    "country": "US",
    "country_code": "USA"
}, {
    "id": "/api/v1/locations/167",
    "longitude": -121.88308,
    "latitude": 45.69192,
    "city": "Stevenson",
    "country": "US",
    "country_code": "USA"
}, {
    "id": "/api/v1/locations/168",
    "longitude": -118.02351,
    "latitude": 33.83175,
    "city": "Cypress",
    "country": "US",
    "country_code": "USA"
}, {
    "id": "/api/v1/locations/169",
    "longitude": -79.49494,
    "latitude": 36.070038,
    "city": "Burlington",
    "country": "US",
    "country_code": "USA"
}, {
    "id": "/api/v1/locations/170",
    "longitude": -109.91349,
    "latitude": 31.443132,
    "city": "Bisbee",
    "country": "US",
    "country_code": "USA"
}, {
    "id": "/api/v1/locations/171",
    "longitude": -79.06031,
    "latitude": 33.840336,
    "city": "Conway",
    "country": "US",
    "country_code": "USA"
}, {
    "id": "/api/v1/locations/172",
    "longitude": -107.664163,
    "latitude": 37.810443,
    "city": "Silverton",
    "country": "US",
    "country_code": "USA"
}, {
    "id": "/api/v1/locations/173",
    "longitude": 18.051859,
    "latitude": 48.90024,
    "city": "Pasadena",
    "country": "US",
    "country_code": "USA"
}, {
    "id": "/api/v1/locations/174",
    "longitude": -80.331315,
    "latitude": 26.123981,
    "city": "Fort Lauderdale",
    "country": "US",
    "country_code": "USA"
}, {
    "id": "/api/v1/locations/175",
    "longitude": null,
    "latitude": null,
    "city": "Dillon",
    "country": "US",
    "country_code": "USA"
}, {
    "id": "/api/v1/locations/176",
    "longitude": -81.745577,
    "latitude": 33.565239,
    "city": "Aiken",
    "country": "US",
    "country_code": "USA"
}, {
    "id": "/api/v1/locations/177",
    "longitude": -89.439605,
    "latitude": 43.072693,
    "city": "Madison",
    "country": "US",
    "country_code": "USA"
}, {
    "id": "/api/v1/locations/178",
    "longitude": -79.274345,
    "latitude": 33.424242,
    "city": "Georgetown",
    "country": "US",
    "country_code": "USA"
}, {
    "id": "/api/v1/locations/179",
    "longitude": -109.949645,
    "latitude": 34.134802,
    "city": "Pinetop",
    "country": "US",
    "country_code": "USA"
}, {
    "id": "/api/v1/locations/180",
    "longitude": -121.791551,
    "latitude": 36.683665,
    "city": "Marina",
    "country": "US",
    "country_code": "USA"
}, {
    "id": "/api/v1/locations/181",
    "longitude": -100.040634,
    "latitude": 37.754002,
    "city": "Dodge City",
    "country": "US",
    "country_code": "USA"
}, {
    "id": "/api/v1/locations/182",
    "longitude": null,
    "latitude": null,
    "city": "Howe",
    "country": "US",
    "country_code": "USA"
}, {
    "id": "/api/v1/locations/183",
    "longitude": null,
    "latitude": null,
    "city": "Howe",
    "country": "US",
    "country_code": "USA"
}, {
    "id": "/api/v1/locations/184",
    "longitude": null,
    "latitude": null,
    "city": "Howe",
    "country": "US",
    "country_code": "USA"
}, {
    "id": "/api/v1/locations/185",
    "longitude": -87.329978,
    "latitude": 41.469446,
    "city": "Merrillville",
    "country": "US",
    "country_code": "USA"
}, {
    "id": "/api/v1/locations/186",
    "longitude": -79.7139,
    "latitude": 40.4461,
    "city": "Pittsburgh",
    "country": "US",
    "country_code": "USA"
}, {
    "id": "/api/v1/locations/187",
    "longitude": -95.558938,
    "latitude": 29.970456,
    "city": "Houston",
    "country": "US",
    "country_code": "USA"
}, {
    "id": "/api/v1/locations/188",
    "longitude": -84.61848,
    "latitude": 37.072174,
    "city": "Somerset",
    "country": "US",
    "country_code": "USA"
}, {
    "id": "/api/v1/locations/189",
    "longitude": -115.79993,
    "latitude": 40.831062,
    "city": "Elko",
    "country": "US",
    "country_code": "USA"
}, {
    "id": "/api/v1/locations/190",
    "longitude": -76.87629,
    "latitude": 38.66893,
    "city": "Brandywine",
    "country": "US",
    "country_code": "USA"
}, {
    "id": "/api/v1/locations/191",
    "longitude": 85.355959,
    "latitude": 27.7216,
    "city": "Alliance",
    "country": "US",
    "country_code": "USA"
}, {
    "id": "/api/v1/locations/192",
    "longitude": -70.81291,
    "latitude": 42.911366,
    "city": "Hampton",
    "country": "US",
    "country_code": "USA"
}, {
    "id": "/api/v1/locations/193",
    "longitude": -89.57642544,
    "latitude": 40.67221051,
    "city": "East Peoria",
    "country": "US",
    "country_code": "USA"
}, {
    "id": "/api/v1/locations/194",
    "longitude": -80.08641,
    "latitude": 26.934633,
    "city": "Jupiter",
    "country": "US",
    "country_code": "USA"
}, {
    "id": "/api/v1/locations/195",
    "longitude": -123.28994,
    "latitude": 42.9414,
    "city": "Canyonville",
    "country": "US",
    "country_code": "USA"
}, {
    "id": "/api/v1/locations/196",
    "longitude": -80.080429,
    "latitude": 42.046699,
    "city": "Erie",
    "country": "US",
    "country_code": "USA"
}, {
    "id": "/api/v1/locations/197",
    "longitude": -88.04958,
    "latitude": 45.841633,
    "city": "Iron Mountain",
    "country": "US",
    "country_code": "USA"
}, {
    "id": "/api/v1/locations/198",
    "longitude": -76.9319,
    "latitude": 38.99565,
    "city": "College Park",
    "country": "US",
    "country_code": "USA"
}, {
    "id": "/api/v1/locations/199",
    "longitude": null,
    "latitude": null,
    "city": "Young",
    "country": "US",
    "country_code": "USA"
}, {
    "id": "/api/v1/locations/200",
    "longitude": -124.203261,
    "latitude": 41.747799,
    "city": "Crescent City",
    "country": "US",
    "country_code": "USA"
}, {
    "id": "/api/v1/locations/201",
    "longitude": 22.890106,
    "latitude": 37.531556,
    "city": "Glen Burnie",
    "country": "US",
    "country_code": "USA"
}, {
    "id": "/api/v1/locations/202",
    "longitude": -101.473816,
    "latitude": 36.689533,
    "city": "Guymon",
    "country": "US",
    "country_code": "USA"
}, {
    "id": "/api/v1/locations/203",
    "longitude": -77.04455,
    "latitude": 38.80474,
    "city": "Alexandria",
    "country": "US",
    "country_code": "USA"
}, {
    "id": "/api/v1/locations/204",
    "longitude": -87.62626,
    "latitude": 41.886337,
    "city": "Chicago",
    "country": "US",
    "country_code": "USA"
}, {
    "id": "/api/v1/locations/205",
    "longitude": -76.717039,
    "latitude": 38.942771,
    "city": "Bowie",
    "country": "US",
    "country_code": "USA"
}, {
    "id": "/api/v1/locations/206",
    "longitude": -97.7154,
    "latitude": 31.433666,
    "city": "Gatesville",
    "country": "US",
    "country_code": "USA"
}, {
    "id": "/api/v1/locations/207",
    "longitude": -159.33808,
    "latitude": 22.042716,
    "city": "Kapaa",
    "country": "US",
    "country_code": "USA"
}, {
    "id": "/api/v1/locations/208",
    "longitude": -89.79881,
    "latitude": 35.03565,
    "city": "Memphis",
    "country": "US",
    "country_code": "USA"
}, {
    "id": "/api/v1/locations/209",
    "longitude": -84.869776,
    "latitude": 35.210384,
    "city": "Cleveland",
    "country": "US",
    "country_code": "USA"
}, {
    "id": "/api/v1/locations/210",
    "longitude": -107.850865,
    "latitude": 37.933273,
    "city": "Telluride",
    "country": "US",
    "country_code": "USA"
}, {
    "id": "/api/v1/locations/211",
    "longitude": -90.071143,
    "latitude": 29.952146,
    "city": "New Orleans",
    "country": "US",
    "country_code": "USA"
}, {
    "id": "/api/v1/locations/212",
    "longitude": -97.92181,
    "latitude": 36.39085,
    "city": "Enid",
    "country": "US",
    "country_code": "USA"
}, {
    "id": "/api/v1/locations/213",
    "longitude": -81.787918,
    "latitude": 26.331369,
    "city": "Bonita Springs",
    "country": "US",
    "country_code": "USA"
}, {
    "id": "/api/v1/locations/214",
    "longitude": -104.992635,
    "latitude": 39.915086,
    "city": "Denver",
    "country": "US",
    "country_code": "USA"
}, {
    "id": "/api/v1/locations/215",
    "longitude": -77.21426,
    "latitude": 40.18661,
    "city": "Carlisle",
    "country": "US",
    "country_code": "USA"
}, {
    "id": "/api/v1/locations/216",
    "longitude": -91.607,
    "latitude": 41.70064,
    "city": "Coralville",
    "country": "US",
    "country_code": "USA"
}, {
    "id": "/api/v1/locations/217",
    "longitude": -93.50884,
    "latitude": 44.80142,
    "city": "Shakopee",
    "country": "US",
    "country_code": "USA"
}, {
    "id": "/api/v1/locations/218",
    "longitude": -121.01571,
    "latitude": 37.11165,
    "city": "Gustine",
    "country": "US",
    "country_code": "USA"
}, {
    "id": "/api/v1/locations/219",
    "longitude": -78.96096,
    "latitude": 35.07617,
    "city": "Fayetteville",
    "country": "US",
    "country_code": "USA"
}, {
    "id": "/api/v1/locations/220",
    "longitude": -94.684165,
    "latitude": 39.307376,
    "city": "Kansas City",
    "country": "US",
    "country_code": "USA"
}, {
    "id": "/api/v1/locations/221",
    "longitude": -76.50707,
    "latitude": 38.47525,
    "city": "Saint Leonard",
    "country": "US",
    "country_code": "USA"
}, {
    "id": "/api/v1/locations/222",
    "longitude": -104.866775,
    "latitude": 39.408529,
    "city": "Castle Rock",
    "country": "US",
    "country_code": "USA"
}, {
    "id": "/api/v1/locations/223",
    "longitude": -94.824007,
    "latitude": 38.847727,
    "city": "Olathe",
    "country": "US",
    "country_code": "USA"
}, {
    "id": "/api/v1/locations/224",
    "longitude": -84.267209,
    "latitude": 39.184318,
    "city": "Milford",
    "country": "US",
    "country_code": "USA"
}, {
    "id": "/api/v1/locations/225",
    "longitude": -105.89536,
    "latitude": 37.47547,
    "city": "Alamosa",
    "country": "US",
    "country_code": "USA"
}, {
    "id": "/api/v1/locations/226",
    "longitude": null,
    "latitude": null,
    "city": "Viburnum",
    "country": "US",
    "country_code": "USA"
}, {
    "id": "/api/v1/locations/227",
    "longitude": -81.455546,
    "latitude": 28.482007,
    "city": "Orlando",
    "country": "US",
    "country_code": "USA"
}, {
    "id": "/api/v1/locations/228",
    "longitude": -89.953575,
    "latitude": 37.8827,
    "city": "Saint Mary",
    "country": "US",
    "country_code": "USA"
}, {
    "id": "/api/v1/locations/229",
    "longitude": -99.146719,
    "latitude": 19.43517,
    "city": "Bristol",
    "country": "US",
    "country_code": "USA"
}, {
    "id": "/api/v1/locations/230",
    "longitude": -79.392412,
    "latitude": 35.197103,
    "city": "Southern Pines",
    "country": "US",
    "country_code": "USA"
}, {
    "id": "/api/v1/locations/231",
    "longitude": -86.533195,
    "latitude": 39.18581,
    "city": "Bloomington",
    "country": "US",
    "country_code": "USA"
}, {
    "id": "/api/v1/locations/232",
    "longitude": -84.108375,
    "latitude": 37.145106,
    "city": "London",
    "country": "US",
    "country_code": "USA"
}, {
    "id": "/api/v1/locations/233",
    "longitude": -80.853663,
    "latitude": 28.552433,
    "city": "Titusville",
    "country": "US",
    "country_code": "USA"
}, {
    "id": "/api/v1/locations/234",
    "longitude": -85.697774,
    "latitude": 38.066499,
    "city": "Shepherdsville",
    "country": "US",
    "country_code": "USA"
}, {
    "id": "/api/v1/locations/235",
    "longitude": -81.801459,
    "latitude": 24.556827,
    "city": "Key West",
    "country": "US",
    "country_code": "USA"
}, {
    "id": "/api/v1/locations/236",
    "longitude": -93.079983,
    "latitude": 39.765741,
    "city": "Brookfield",
    "country": "US",
    "country_code": "USA"
}, {
    "id": "/api/v1/locations/237",
    "longitude": 106.823673,
    "latitude": -6.195424,
    "city": "Staten Island",
    "country": "US",
    "country_code": "USA"
}, {
    "id": "/api/v1/locations/238",
    "longitude": -78.74249,
    "latitude": 42.98961,
    "city": "Hobart",
    "country": "US",
    "country_code": "USA"
}, {
    "id": "/api/v1/locations/239",
    "longitude": -119.88103,
    "latitude": 37.811924,
    "city": "Groveland",
    "country": "US",
    "country_code": "USA"
}, {
    "id": "/api/v1/locations/240",
    "longitude": -89.12880845,
    "latitude": 38.97034343,
    "city": "Vandalia",
    "country": "US",
    "country_code": "USA"
}, {
    "id": "/api/v1/locations/241",
    "longitude": -97.958775,
    "latitude": 26.171754,
    "city": "Weslaco",
    "country": "US",
    "country_code": "USA"
}, {
    "id": "/api/v1/locations/242",
    "longitude": -115.751013,
    "latitude": 40.843764,
    "city": "Elko",
    "country": "US",
    "country_code": "USA"
}, {
    "id": "/api/v1/locations/243",
    "longitude": 15.060435,
    "latitude": 37.52297,
    "city": "San Jose",
    "country": "US",
    "country_code": "USA"
}, {
    "id": "/api/v1/locations/244",
    "longitude": -82.739762,
    "latitude": 28.115091,
    "city": "Palm Harbor",
    "country": "US",
    "country_code": "USA"
}, {
    "id": "/api/v1/locations/245",
    "longitude": 8.914842,
    "latitude": 41.679122,
    "city": "Manassas",
    "country": "US",
    "country_code": "USA"
}, {
    "id": "/api/v1/locations/246",
    "longitude": -90.06636,
    "latitude": 29.962454,
    "city": "New Orleans",
    "country": "US",
    "country_code": "USA"
}, {
    "id": "/api/v1/locations/247",
    "longitude": -74.5452,
    "latitude": 40.55109,
    "city": "Somerset",
    "country": "US",
    "country_code": "USA"
}, {
    "id": "/api/v1/locations/248",
    "longitude": -95.116243,
    "latitude": 43.856357,
    "city": "Windom",
    "country": "US",
    "country_code": "USA"
}, {
    "id": "/api/v1/locations/249",
    "longitude": -73.76084,
    "latitude": 40.761604,
    "city": "Bayside",
    "country": "US",
    "country_code": "USA"
}, {
    "id": "/api/v1/locations/250",
    "longitude": -93.70201,
    "latitude": 32.52313,
    "city": "Bossier City",
    "country": "US",
    "country_code": "USA"
}, {
    "id": "/api/v1/locations/251",
    "longitude": -105.674432,
    "latitude": 33.351721,
    "city": "Ruidoso",
    "country": "US",
    "country_code": "USA"
}, {
    "id": "/api/v1/locations/252",
    "longitude": -96.55681,
    "latitude": 39.18027,
    "city": "Manhattan",
    "country": "US",
    "country_code": "USA"
}, {
    "id": "/api/v1/locations/253",
    "longitude": -90.019974,
    "latitude": 38.641903,
    "city": "Caseyville",
    "country": "US",
    "country_code": "USA"
}, {
    "id": "/api/v1/locations/254",
    "longitude": -96.669808,
    "latitude": 34.786299,
    "city": "Ada",
    "country": "US",
    "country_code": "USA"
}, {
    "id": "/api/v1/locations/255",
    "longitude": -75.42649,
    "latitude": 43.00021,
    "city": "Deansboro",
    "country": "US",
    "country_code": "USA"
}, {
    "id": "/api/v1/locations/256",
    "longitude": -71.42781,
    "latitude": 41.84353,
    "city": "Providence",
    "country": "US",
    "country_code": "USA"
}, {
    "id": "/api/v1/locations/257",
    "longitude": -122.288533,
    "latitude": 38.283329,
    "city": "Napa",
    "country": "US",
    "country_code": "USA"
}, {
    "id": "/api/v1/locations/258",
    "longitude": -97.744278,
    "latitude": 30.416106,
    "city": "Austin",
    "country": "US",
    "country_code": "USA"
}, {
    "id": "/api/v1/locations/259",
    "longitude": -122.6828,
    "latitude": 45.52085,
    "city": "Portland",
    "country": "US",
    "country_code": "USA"
}, {
    "id": "/api/v1/locations/260",
    "longitude": -87.6413,
    "latitude": 41.880368,
    "city": "Chicago",
    "country": "US",
    "country_code": "USA"
}, {
    "id": "/api/v1/locations/261",
    "longitude": -84.36962,
    "latitude": 35.50645,
    "city": "Madisonville",
    "country": "US",
    "country_code": "USA"
}, {
    "id": "/api/v1/locations/262",
    "longitude": -71.56098,
    "latitude": 44.266968,
    "city": "Twin Mountain",
    "country": "US",
    "country_code": "USA"
}, {
    "id": "/api/v1/locations/263",
    "longitude": -80.106043,
    "latitude": 40.45133,
    "city": "Pittsburgh",
    "country": "US",
    "country_code": "USA"
}, {
    "id": "/api/v1/locations/264",
    "longitude": -74.530457,
    "latitude": 39.447342,
    "city": "Absecon",
    "country": "US",
    "country_code": "USA"
}, {
    "id": "/api/v1/locations/265",
    "longitude": -71.24301,
    "latitude": 43.262497,
    "city": "Northwood",
    "country": "US",
    "country_code": "USA"
}, {
    "id": "/api/v1/locations/266",
    "longitude": -88.12569,
    "latitude": 37.073742,
    "city": "Kuttawa",
    "country": "US",
    "country_code": "USA"
}, {
    "id": "/api/v1/locations/267",
    "longitude": -0.658295,
    "latitude": 45.054526,
    "city": "Lake Worth",
    "country": "US",
    "country_code": "USA"
}, {
    "id": "/api/v1/locations/268",
    "longitude": -98.48179,
    "latitude": 29.50357,
    "city": "San Antonio",
    "country": "US",
    "country_code": "USA"
}, {
    "id": "/api/v1/locations/269",
    "longitude": -111.900889,
    "latitude": 40.62079,
    "city": "Midvale",
    "country": "US",
    "country_code": "USA"
}, {
    "id": "/api/v1/locations/270",
    "longitude": -79.002934,
    "latitude": 34.669878,
    "city": "Lumberton",
    "country": "US",
    "country_code": "USA"
}, {
    "id": "/api/v1/locations/271",
    "longitude": -70.980637,
    "latitude": 44.016433,
    "city": "Fryeburg",
    "country": "US",
    "country_code": "USA"
}, {
    "id": "/api/v1/locations/272",
    "longitude": -81.91773,
    "latitude": 40.554265,
    "city": "Millersburg",
    "country": "US",
    "country_code": "USA"
}, {
    "id": "/api/v1/locations/273",
    "longitude": -83.55146,
    "latitude": 35.86827,
    "city": "Sevierville",
    "country": "US",
    "country_code": "USA"
}, {
    "id": "/api/v1/locations/274",
    "longitude": -98.42784,
    "latitude": 45.459026,
    "city": "Aberdeen",
    "country": "US",
    "country_code": "USA"
}, {
    "id": "/api/v1/locations/275",
    "longitude": -121.814181,
    "latitude": 37.701428,
    "city": "Livermore",
    "country": "US",
    "country_code": "USA"
}, {
    "id": "/api/v1/locations/276",
    "longitude": -81.79447,
    "latitude": 24.54733,
    "city": "Key West",
    "country": "US",
    "country_code": "USA"
}, {
    "id": "/api/v1/locations/277",
    "longitude": -106.65298,
    "latitude": 35.12073,
    "city": "Albuquerque",
    "country": "US",
    "country_code": "USA"
}, {
    "id": "/api/v1/locations/278",
    "longitude": 7.558972,
    "latitude": 45.057607,
    "city": "New York",
    "country": "US",
    "country_code": "USA"
}, {
    "id": "/api/v1/locations/279",
    "longitude": 1.153677,
    "latitude": 41.08352,
    "city": "Stone Creek",
    "country": "US",
    "country_code": "USA"
}, {
    "id": "/api/v1/locations/280",
    "longitude": -100.85452,
    "latitude": 32.388258,
    "city": "Colorado City",
    "country": "US",
    "country_code": "USA"
}, {
    "id": "/api/v1/locations/281",
    "longitude": null,
    "latitude": null,
    "city": "New York",
    "country": "US",
    "country_code": "USA"
}, {
    "id": "/api/v1/locations/282",
    "longitude": null,
    "latitude": null,
    "city": "New York",
    "country": "US",
    "country_code": "USA"
}, {
    "id": "/api/v1/locations/283",
    "longitude": -73.26543,
    "latitude": 40.806018,
    "city": "Hauppauge",
    "country": "US",
    "country_code": "USA"
}, {
    "id": "/api/v1/locations/284",
    "longitude": -80.29879,
    "latitude": 36.07896,
    "city": "Winston Salem",
    "country": "US",
    "country_code": "USA"
}, {
    "id": "/api/v1/locations/285",
    "longitude": -103.534561,
    "latitude": 43.943866,
    "city": "Hill City",
    "country": "US",
    "country_code": "USA"
}, {
    "id": "/api/v1/locations/286",
    "longitude": -89.79189,
    "latitude": 35.20632,
    "city": "Memphis",
    "country": "US",
    "country_code": "USA"
}, {
    "id": "/api/v1/locations/287",
    "longitude": -80.87268,
    "latitude": 35.44025,
    "city": "Huntersville",
    "country": "US",
    "country_code": "USA"
}, {
    "id": "/api/v1/locations/288",
    "longitude": -104.981704,
    "latitude": 40.158007,
    "city": "Longmont",
    "country": "US",
    "country_code": "USA"
}, {
    "id": "/api/v1/locations/289",
    "longitude": -100.55091,
    "latitude": 42.871143,
    "city": "Valentine",
    "country": "US",
    "country_code": "USA"
}, {
    "id": "/api/v1/locations/290",
    "longitude": -104.84949,
    "latitude": 41.11915,
    "city": "Cheyenne",
    "country": "US",
    "country_code": "USA"
}, {
    "id": "/api/v1/locations/291",
    "longitude": -83.97584,
    "latitude": 34.52495,
    "city": "Dahlonega",
    "country": "US",
    "country_code": "USA"
}, {
    "id": "/api/v1/locations/292",
    "longitude": -73.33482,
    "latitude": 42.238323,
    "city": "Great Barrington",
    "country": "US",
    "country_code": "USA"
}, {
    "id": "/api/v1/locations/293",
    "longitude": -81.998825,
    "latitude": 39.35401,
    "city": "Athens",
    "country": "US",
    "country_code": "USA"
}, {
    "id": "/api/v1/locations/294",
    "longitude": -104.983568,
    "latitude": 39.744501,
    "city": "Denver",
    "country": "US",
    "country_code": "USA"
}, {
    "id": "/api/v1/locations/295",
    "longitude": -89.02539,
    "latitude": 40.481496,
    "city": "Bloomington",
    "country": "US",
    "country_code": "USA"
}, {
    "id": "/api/v1/locations/296",
    "longitude": -112.85909,
    "latitude": 42.776073,
    "city": "American Falls",
    "country": "US",
    "country_code": "USA"
}, {
    "id": "/api/v1/locations/297",
    "longitude": -82.85883,
    "latitude": 41.52469,
    "city": "Port Clinton",
    "country": "US",
    "country_code": "USA"
}, {
    "id": "/api/v1/locations/298",
    "longitude": -80.058094,
    "latitude": 26.464654,
    "city": "Delray Beach",
    "country": "US",
    "country_code": "USA"
}, {
    "id": "/api/v1/locations/299",
    "longitude": -68.810204,
    "latitude": 44.791314,
    "city": "Bangor",
    "country": "US",
    "country_code": "USA"
}, {
    "id": "/api/v1/locations/300",
    "longitude": -75.65106,
    "latitude": 40.80952,
    "city": "Palmerton",
    "country": "US",
    "country_code": "USA"
}, {
    "id": "/api/v1/locations/301",
    "longitude": -76.15138,
    "latitude": 39.97231,
    "city": "Strasburg",
    "country": "US",
    "country_code": "USA"
}, {
    "id": "/api/v1/locations/302",
    "longitude": -77.00576,
    "latitude": 42.8566,
    "city": "Geneva",
    "country": "US",
    "country_code": "USA"
}, {
    "id": "/api/v1/locations/303",
    "longitude": 11.298293,
    "latitude": 43.801897,
    "city": "Ames",
    "country": "US",
    "country_code": "USA"
}, {
    "id": "/api/v1/locations/304",
    "longitude": -99.401614,
    "latitude": 35.386405,
    "city": "Elk City",
    "country": "US",
    "country_code": "USA"
}, {
    "id": "/api/v1/locations/305",
    "longitude": -117.167651,
    "latitude": 32.724488,
    "city": "San Diego",
    "country": "US",
    "country_code": "USA"
}, {
    "id": "/api/v1/locations/306",
    "longitude": -79.097809,
    "latitude": 33.470477,
    "city": "Pawleys Island",
    "country": "US",
    "country_code": "USA"
}, {
    "id": "/api/v1/locations/307",
    "longitude": -90.411665,
    "latitude": 34.819119,
    "city": "Robinsonville",
    "country": "US",
    "country_code": "USA"
}, {
    "id": "/api/v1/locations/308",
    "longitude": -122.31429,
    "latitude": 47.66143,
    "city": "Seattle",
    "country": "US",
    "country_code": "USA"
}, {
    "id": "/api/v1/locations/309",
    "longitude": -91.98766,
    "latitude": 37.461372,
    "city": "Licking",
    "country": "US",
    "country_code": "USA"
}, {
    "id": "/api/v1/locations/310",
    "longitude": -90.161739,
    "latitude": 46.463291,
    "city": "Ironwood",
    "country": "US",
    "country_code": "USA"
}, {
    "id": "/api/v1/locations/311",
    "longitude": -89.274311,
    "latitude": 45.914957,
    "city": "Eagle River",
    "country": "US",
    "country_code": "USA"
}, {
    "id": "/api/v1/locations/312",
    "longitude": -88.037895,
    "latitude": 15.499006,
    "city": "Annapolis",
    "country": "US",
    "country_code": "USA"
}, {
    "id": "/api/v1/locations/313",
    "longitude": -124.0137872,
    "latitude": 44.98465469,
    "city": "Lincoln City",
    "country": "US",
    "country_code": "USA"
}, {
    "id": "/api/v1/locations/314",
    "longitude": -83.010776,
    "latitude": 42.628861,
    "city": "Utica",
    "country": "US",
    "country_code": "USA"
}, {
    "id": "/api/v1/locations/315",
    "longitude": -4.503823,
    "latitude": 36.610974,
    "city": "Abbeville",
    "country": "US",
    "country_code": "USA"
}, {
    "id": "/api/v1/locations/316",
    "longitude": 28.978276,
    "latitude": 41.011854,
    "city": "Naples",
    "country": "US",
    "country_code": "USA"
}, {
    "id": "/api/v1/locations/317",
    "longitude": -88.8607,
    "latitude": 44.27578,
    "city": "Fremont",
    "country": "US",
    "country_code": "USA"
}, {
    "id": "/api/v1/locations/318",
    "longitude": -4.426402,
    "latitude": 36.714936,
    "city": "Ballentine",
    "country": "US",
    "country_code": "USA"
}, {
    "id": "/api/v1/locations/319",
    "longitude": -122.29774,
    "latitude": 47.841274,
    "city": "Lynnwood",
    "country": "US",
    "country_code": "USA"
}, {
    "id": "/api/v1/locations/320",
    "longitude": -83.041229,
    "latitude": 42.334646,
    "city": "Detroit",
    "country": "US",
    "country_code": "USA"
}, {
    "id": "/api/v1/locations/321",
    "longitude": -92.64586,
    "latitude": 41.32402,
    "city": "Oskaloosa",
    "country": "US",
    "country_code": "USA"
}, {
    "id": "/api/v1/locations/322",
    "longitude": -86.95516,
    "latitude": 36.07851,
    "city": "Nashville",
    "country": "US",
    "country_code": "USA"
}, {
    "id": "/api/v1/locations/323",
    "longitude": -118.45369,
    "latitude": 33.987299,
    "city": "Marina Del Rey",
    "country": "US",
    "country_code": "USA"
}, {
    "id": "/api/v1/locations/324",
    "longitude": -83.46169,
    "latitude": 35.41966,
    "city": "Bryson City",
    "country": "US",
    "country_code": "USA"
}, {
    "id": "/api/v1/locations/325",
    "longitude": -72.962371,
    "latitude": 43.59359,
    "city": "Rutland",
    "country": "US",
    "country_code": "USA"
}, {
    "id": "/api/v1/locations/326",
    "longitude": -115.146375,
    "latitude": 36.171617,
    "city": "Las Vegas",
    "country": "US",
    "country_code": "USA"
}, {
    "id": "/api/v1/locations/327",
    "longitude": -116.40588,
    "latitude": 33.798553,
    "city": "Rancho Mirage",
    "country": "US",
    "country_code": "USA"
}, {
    "id": "/api/v1/locations/328",
    "longitude": -98.9245,
    "latitude": 36.144417,
    "city": "Seiling",
    "country": "US",
    "country_code": "USA"
}, {
    "id": "/api/v1/locations/329",
    "longitude": -82.42733,
    "latitude": 36.37389,
    "city": "Johnson City",
    "country": "US",
    "country_code": "USA"
}, {
    "id": "/api/v1/locations/330",
    "longitude": -88.04079,
    "latitude": 30.68811,
    "city": "Mobile",
    "country": "US",
    "country_code": "USA"
}, {
    "id": "/api/v1/locations/331",
    "longitude": -97.329861,
    "latitude": 36.288362,
    "city": "Perry",
    "country": "US",
    "country_code": "USA"
}, {
    "id": "/api/v1/locations/332",
    "longitude": -96.857314,
    "latitude": 32.643793,
    "city": "Dallas",
    "country": "US",
    "country_code": "USA"
}, {
    "id": "/api/v1/locations/333",
    "longitude": -84.29196,
    "latitude": 33.28714,
    "city": "Griffin",
    "country": "US",
    "country_code": "USA"
}, {
    "id": "/api/v1/locations/334",
    "longitude": -76.821103,
    "latitude": 40.277723,
    "city": "Harrisburg",
    "country": "US",
    "country_code": "USA"
}, {
    "id": "/api/v1/locations/335",
    "longitude": -155.237305,
    "latitude": 19.426996,
    "city": "Volcano",
    "country": "US",
    "country_code": "USA"
}, {
    "id": "/api/v1/locations/336",
    "longitude": -97.168512,
    "latitude": 32.979373,
    "city": "Roanoke",
    "country": "US",
    "country_code": "USA"
}, {
    "id": "/api/v1/locations/337",
    "longitude": -102.2781229,
    "latitude": 39.29873832,
    "city": "Burlington",
    "country": "US",
    "country_code": "USA"
}, {
    "id": "/api/v1/locations/338",
    "longitude": -80.166405,
    "latitude": 26.211905,
    "city": "Pompano Beach",
    "country": "US",
    "country_code": "USA"
}, {
    "id": "/api/v1/locations/339",
    "longitude": -123.88225,
    "latitude": 45.68964,
    "city": "Wheeler",
    "country": "US",
    "country_code": "USA"
}, {
    "id": "/api/v1/locations/340",
    "longitude": -79.956245,
    "latitude": 39.630993,
    "city": "Morgantown",
    "country": "US",
    "country_code": "USA"
}, {
    "id": "/api/v1/locations/341",
    "longitude": -92.66761,
    "latitude": 37.65888,
    "city": "Lebanon",
    "country": "US",
    "country_code": "USA"
}, {
    "id": "/api/v1/locations/342",
    "longitude": -79.931668,
    "latitude": 40.453283,
    "city": "Pittsburgh",
    "country": "US",
    "country_code": "USA"
}, {
    "id": "/api/v1/locations/343",
    "longitude": -78.645195,
    "latitude": 33.82734,
    "city": "North Myrtle Beach",
    "country": "US",
    "country_code": "USA"
}, {
    "id": "/api/v1/locations/344",
    "longitude": -79.60615,
    "latitude": 40.22014,
    "city": "New Stanton",
    "country": "US",
    "country_code": "USA"
}, {
    "id": "/api/v1/locations/345",
    "longitude": -84.51029,
    "latitude": 35.87883,
    "city": "Kingston",
    "country": "US",
    "country_code": "USA"
}, {
    "id": "/api/v1/locations/346",
    "longitude": null,
    "latitude": null,
    "city": "Concan",
    "country": "US",
    "country_code": "USA"
}, {
    "id": "/api/v1/locations/347",
    "longitude": -116.097702,
    "latitude": 44.910785,
    "city": "Mccall",
    "country": "US",
    "country_code": "USA"
}, {
    "id": "/api/v1/locations/348",
    "longitude": -95.621864,
    "latitude": 43.635653,
    "city": "Worthington",
    "country": "US",
    "country_code": "USA"
}, {
    "id": "/api/v1/locations/349",
    "longitude": -84.716395,
    "latitude": 33.75146,
    "city": "Douglasville",
    "country": "US",
    "country_code": "USA"
}, {
    "id": "/api/v1/locations/350",
    "longitude": -92.98395,
    "latitude": 43.681877,
    "city": "Austin",
    "country": "US",
    "country_code": "USA"
}, {
    "id": "/api/v1/locations/351",
    "longitude": -103.814575,
    "latitude": 44.478751,
    "city": "Spearfish",
    "country": "US",
    "country_code": "USA"
}, {
    "id": "/api/v1/locations/352",
    "longitude": -92.590965,
    "latitude": 36.382416,
    "city": "Bull Shoals",
    "country": "US",
    "country_code": "USA"
}, {
    "id": "/api/v1/locations/353",
    "longitude": -79.947005,
    "latitude": 37.256149,
    "city": "Roanoke",
    "country": "US",
    "country_code": "USA"
}, {
    "id": "/api/v1/locations/354",
    "longitude": 9.071522086,
    "latitude": 45.42665054,
    "city": "Washington",
    "country": "US",
    "country_code": "USA"
}, {
    "id": "/api/v1/locations/355",
    "longitude": -67.85834,
    "latitude": 45.706852,
    "city": "Danforth",
    "country": "US",
    "country_code": "USA"
}, {
    "id": "/api/v1/locations/356",
    "longitude": -77.47601,
    "latitude": 37.93338,
    "city": "Ruther Glen",
    "country": "US",
    "country_code": "USA"
}, {
    "id": "/api/v1/locations/357",
    "longitude": -109.930688,
    "latitude": 22.875315,
    "city": "Virginia Beach",
    "country": "US",
    "country_code": "USA"
}, {
    "id": "/api/v1/locations/358",
    "longitude": -77.850866,
    "latitude": 39.29304,
    "city": "Charles Town",
    "country": "US",
    "country_code": "USA"
}, {
    "id": "/api/v1/locations/359",
    "longitude": -91.65231,
    "latitude": 42.03019,
    "city": "Cedar Rapids",
    "country": "US",
    "country_code": "USA"
}, {
    "id": "/api/v1/locations/360",
    "longitude": -104.95052,
    "latitude": 44.264012,
    "city": "Moorcroft",
    "country": "US",
    "country_code": "USA"
}, {
    "id": "/api/v1/locations/361",
    "longitude": -89.913938,
    "latitude": 38.734557,
    "city": "Troy",
    "country": "US",
    "country_code": "USA"
}, {
    "id": "/api/v1/locations/362",
    "longitude": -74.00145,
    "latitude": 40.70806,
    "city": "New York",
    "country": "US",
    "country_code": "USA"
}, {
    "id": "/api/v1/locations/363",
    "longitude": -99.76546,
    "latitude": 32.40399,
    "city": "Abilene",
    "country": "US",
    "country_code": "USA"
}, {
    "id": "/api/v1/locations/364",
    "longitude": -106.81712,
    "latitude": 39.1859,
    "city": "Aspen",
    "country": "US",
    "country_code": "USA"
}, {
    "id": "/api/v1/locations/365",
    "longitude": -78.440755,
    "latitude": 36.334415,
    "city": "Henderson",
    "country": "US",
    "country_code": "USA"
}, {
    "id": "/api/v1/locations/366",
    "longitude": -85.97723,
    "latitude": 41.73513,
    "city": "Elkhart",
    "country": "US",
    "country_code": "USA"
}, {
    "id": "/api/v1/locations/367",
    "longitude": -74.931078,
    "latitude": 42.701214,
    "city": "Cooperstown",
    "country": "US",
    "country_code": "USA"
}, {
    "id": "/api/v1/locations/368",
    "longitude": -78.395267,
    "latitude": 40.49514,
    "city": "Altoona",
    "country": "US",
    "country_code": "USA"
}, {
    "id": "/api/v1/locations/369",
    "longitude": -70.261804,
    "latitude": 41.657447,
    "city": "West Yarmouth",
    "country": "US",
    "country_code": "USA"
}, {
    "id": "/api/v1/locations/370",
    "longitude": -121.83713,
    "latitude": 39.72602,
    "city": "Chico",
    "country": "US",
    "country_code": "USA"
}, {
    "id": "/api/v1/locations/371",
    "longitude": -109.05777,
    "latitude": 44.52608,
    "city": "Cody",
    "country": "US",
    "country_code": "USA"
}, {
    "id": "/api/v1/locations/372",
    "longitude": 15.293988,
    "latitude": 37.850643,
    "city": "Medina",
    "country": "US",
    "country_code": "USA"
}, {
    "id": "/api/v1/locations/373",
    "longitude": -80.246321,
    "latitude": 26.096485,
    "city": "Fort Lauderdale",
    "country": "US",
    "country_code": "USA"
}, {
    "id": "/api/v1/locations/374",
    "longitude": -70.28407,
    "latitude": 45.68028,
    "city": "Jackman",
    "country": "US",
    "country_code": "USA"
}, {
    "id": "/api/v1/locations/375",
    "longitude": -92.610975,
    "latitude": 36.105263,
    "city": "Yellville",
    "country": "US",
    "country_code": "USA"
}, {
    "id": "/api/v1/locations/376",
    "longitude": -83.722511,
    "latitude": 32.805482,
    "city": "Macon",
    "country": "US",
    "country_code": "USA"
}, {
    "id": "/api/v1/locations/377",
    "longitude": -81.648827,
    "latitude": 30.479833,
    "city": "Jacksonville",
    "country": "US",
    "country_code": "USA"
}, {
    "id": "/api/v1/locations/378",
    "longitude": -84.189419,
    "latitude": 39.849845,
    "city": "Dayton",
    "country": "US",
    "country_code": "USA"
}, {
    "id": "/api/v1/locations/379",
    "longitude": -89.8086,
    "latitude": 35.20486,
    "city": "Memphis",
    "country": "US",
    "country_code": "USA"
}, {
    "id": "/api/v1/locations/380",
    "longitude": -107.86844,
    "latitude": 37.30421,
    "city": "Durango",
    "country": "US",
    "country_code": "USA"
}, {
    "id": "/api/v1/locations/381",
    "longitude": -93.23993,
    "latitude": 44.85201,
    "city": "Minneapolis",
    "country": "US",
    "country_code": "USA"
}, {
    "id": "/api/v1/locations/382",
    "longitude": -88.43277,
    "latitude": 42.303436,
    "city": "Woodstock",
    "country": "US",
    "country_code": "USA"
}, {
    "id": "/api/v1/locations/383",
    "longitude": -84.398014,
    "latitude": 33.79156,
    "city": "Atlanta",
    "country": "US",
    "country_code": "USA"
}, {
    "id": "/api/v1/locations/384",
    "longitude": -95.361488,
    "latitude": 29.752848,
    "city": "Houston",
    "country": "US",
    "country_code": "USA"
}, {
    "id": "/api/v1/locations/385",
    "longitude": -92.46476,
    "latitude": 46.713882,
    "city": "Cloquet",
    "country": "US",
    "country_code": "USA"
}, {
    "id": "/api/v1/locations/386",
    "longitude": -88.9672,
    "latitude": 42.27388,
    "city": "Rockford",
    "country": "US",
    "country_code": "USA"
}, {
    "id": "/api/v1/locations/387",
    "longitude": -92.18473,
    "latitude": 30.953453,
    "city": "Bunkie",
    "country": "US",
    "country_code": "USA"
}, {
    "id": "/api/v1/locations/388",
    "longitude": -83.71964,
    "latitude": 32.81274,
    "city": "Macon",
    "country": "US",
    "country_code": "USA"
}, {
    "id": "/api/v1/locations/389",
    "longitude": -116.9435,
    "latitude": 44.02586,
    "city": "Ontario",
    "country": "US",
    "country_code": "USA"
}, {
    "id": "/api/v1/locations/390",
    "longitude": -1.124223,
    "latitude": 37.981858,
    "city": "Norcross",
    "country": "US",
    "country_code": "USA"
}, {
    "id": "/api/v1/locations/391",
    "longitude": -96.37438,
    "latitude": 42.50763,
    "city": "Sioux City",
    "country": "US",
    "country_code": "USA"
}, {
    "id": "/api/v1/locations/392",
    "longitude": -122.003242,
    "latitude": 37.352307,
    "city": "Sunnyvale",
    "country": "US",
    "country_code": "USA"
}, {
    "id": "/api/v1/locations/393",
    "longitude": 9.988144,
    "latitude": 53.566245,
    "city": "Ashburn",
    "country": "US",
    "country_code": "USA"
}, {
    "id": "/api/v1/locations/394",
    "longitude": -77.00991,
    "latitude": 38.97528,
    "city": "Takoma Park",
    "country": "US",
    "country_code": "USA"
}, {
    "id": "/api/v1/locations/395",
    "longitude": -97.98694,
    "latitude": 30.373974,
    "city": "Austin",
    "country": "US",
    "country_code": "USA"
}, {
    "id": "/api/v1/locations/396",
    "longitude": -101.742208,
    "latitude": 35.194703,
    "city": "Amarillo",
    "country": "US",
    "country_code": "USA"
}, {
    "id": "/api/v1/locations/397",
    "longitude": -86.822972,
    "latitude": 35.911253,
    "city": "Franklin",
    "country": "US",
    "country_code": "USA"
}, {
    "id": "/api/v1/locations/398",
    "longitude": -80.08916,
    "latitude": 40.40608,
    "city": "Carnegie",
    "country": "US",
    "country_code": "USA"
}, {
    "id": "/api/v1/locations/399",
    "longitude": -70.81505,
    "latitude": 42.902237,
    "city": "Hampton",
    "country": "US",
    "country_code": "USA"
}, {
    "id": "/api/v1/locations/400",
    "longitude": -122.436031,
    "latitude": 37.799801,
    "city": "San Francisco",
    "country": "US",
    "country_code": "USA"
}, {
    "id": "/api/v1/locations/401",
    "longitude": -73.824065,
    "latitude": 44.364186,
    "city": "Wilmington",
    "country": "US",
    "country_code": "USA"
}, {
    "id": "/api/v1/locations/402",
    "longitude": -83.01189,
    "latitude": 40.11387,
    "city": "Columbus",
    "country": "US",
    "country_code": "USA"
}, {
    "id": "/api/v1/locations/403",
    "longitude": -94.446189,
    "latitude": 43.676471,
    "city": "Fairmont",
    "country": "US",
    "country_code": "USA"
}, {
    "id": "/api/v1/locations/404",
    "longitude": -114.89076,
    "latitude": 39.24836,
    "city": "Ely",
    "country": "US",
    "country_code": "USA"
}, {
    "id": "/api/v1/locations/405",
    "longitude": -105.90579,
    "latitude": 37.48132,
    "city": "Alamosa",
    "country": "US",
    "country_code": "USA"
}, {
    "id": "/api/v1/locations/406",
    "longitude": -77.17851,
    "latitude": 38.7756,
    "city": "Springfield",
    "country": "US",
    "country_code": "USA"
}, {
    "id": "/api/v1/locations/407",
    "longitude": -121.527419,
    "latitude": 39.903822,
    "city": "Stirling City",
    "country": "US",
    "country_code": "USA"
}, {
    "id": "/api/v1/locations/408",
    "longitude": -81.08055,
    "latitude": 24.711823,
    "city": "Marathon",
    "country": "US",
    "country_code": "USA"
}, {
    "id": "/api/v1/locations/409",
    "longitude": -86.5871,
    "latitude": 32.802624,
    "city": "Clanton",
    "country": "US",
    "country_code": "USA"
}, {
    "id": "/api/v1/locations/410",
    "longitude": -90.15817,
    "latitude": 35.160223,
    "city": "West Memphis",
    "country": "US",
    "country_code": "USA"
}, {
    "id": "/api/v1/locations/411",
    "longitude": -80.15937,
    "latitude": 26.23112,
    "city": "Pompano Beach",
    "country": "US",
    "country_code": "USA"
}, {
    "id": "/api/v1/locations/412",
    "longitude": -93.82771,
    "latitude": 32.47119,
    "city": "Shreveport",
    "country": "US",
    "country_code": "USA"
}, {
    "id": "/api/v1/locations/413",
    "longitude": -80.69679,
    "latitude": 37.07262,
    "city": "Dublin",
    "country": "US",
    "country_code": "USA"
}, {
    "id": "/api/v1/locations/414",
    "longitude": -85.6692,
    "latitude": 42.82547,
    "city": "Byron Center",
    "country": "US",
    "country_code": "USA"
}, {
    "id": "/api/v1/locations/415",
    "longitude": -87.953952,
    "latitude": 41.846704,
    "city": "Oak Brook",
    "country": "US",
    "country_code": "USA"
}, {
    "id": "/api/v1/locations/416",
    "longitude": -86.25733,
    "latitude": 39.910885,
    "city": "Indianapolis",
    "country": "US",
    "country_code": "USA"
}, {
    "id": "/api/v1/locations/417",
    "longitude": -80.98843,
    "latitude": 35.987297,
    "city": "Statesville",
    "country": "US",
    "country_code": "USA"
}, {
    "id": "/api/v1/locations/418",
    "longitude": 8.760921,
    "latitude": 50.106529,
    "city": "Northbrook",
    "country": "US",
    "country_code": "USA"
}, {
    "id": "/api/v1/locations/419",
    "longitude": -78.78996,
    "latitude": 35.73348,
    "city": "Cary",
    "country": "US",
    "country_code": "USA"
}, {
    "id": "/api/v1/locations/420",
    "longitude": -83.67237,
    "latitude": 32.61835,
    "city": "Warner Robins",
    "country": "US",
    "country_code": "USA"
}, {
    "id": "/api/v1/locations/421",
    "longitude": -89.922673,
    "latitude": 34.30856,
    "city": "Batesville",
    "country": "US",
    "country_code": "USA"
}, {
    "id": "/api/v1/locations/422",
    "longitude": -117.223519,
    "latitude": 32.726385,
    "city": "San Diego",
    "country": "US",
    "country_code": "USA"
}, {
    "id": "/api/v1/locations/423",
    "longitude": -118.3815,
    "latitude": 33.3649,
    "city": "Avalon",
    "country": "US",
    "country_code": "USA"
}, {
    "id": "/api/v1/locations/424",
    "longitude": -99.084655,
    "latitude": 40.682933,
    "city": "Kearney",
    "country": "US",
    "country_code": "USA"
}, {
    "id": "/api/v1/locations/425",
    "longitude": -97.06111,
    "latitude": 44.89151,
    "city": "Watertown",
    "country": "US",
    "country_code": "USA"
}, {
    "id": "/api/v1/locations/426",
    "longitude": -122.41122,
    "latitude": 37.784122,
    "city": "San Francisco",
    "country": "US",
    "country_code": "USA"
}, {
    "id": "/api/v1/locations/427",
    "longitude": -105.63678,
    "latitude": 33.312737,
    "city": "Ruidoso",
    "country": "US",
    "country_code": "USA"
}, {
    "id": "/api/v1/locations/428",
    "longitude": -89.63387,
    "latitude": 42.27901,
    "city": "Freeport",
    "country": "US",
    "country_code": "USA"
}, {
    "id": "/api/v1/locations/429",
    "longitude": -119.936437,
    "latitude": 39.244493,
    "city": "Incline Village",
    "country": "US",
    "country_code": "USA"
}, {
    "id": "/api/v1/locations/430",
    "longitude": -70.64271,
    "latitude": 44.965683,
    "city": "Rangeley",
    "country": "US",
    "country_code": "USA"
}, {
    "id": "/api/v1/locations/431",
    "longitude": -111.932986,
    "latitude": 41.616549,
    "city": "Wellsville",
    "country": "US",
    "country_code": "USA"
}, {
    "id": "/api/v1/locations/432",
    "longitude": -78.54278,
    "latitude": 35.95036,
    "city": "Raleigh",
    "country": "US",
    "country_code": "USA"
}, {
    "id": "/api/v1/locations/433",
    "longitude": -76.33129,
    "latitude": 40.05696,
    "city": "Lancaster",
    "country": "US",
    "country_code": "USA"
}, {
    "id": "/api/v1/locations/434",
    "longitude": 23.774569,
    "latitude": 37.812115,
    "city": "Ramey",
    "country": "US",
    "country_code": "USA"
}, {
    "id": "/api/v1/locations/435",
    "longitude": -122.331267,
    "latitude": 37.9567,
    "city": "Springfield",
    "country": "US",
    "country_code": "USA"
}, {
    "id": "/api/v1/locations/436",
    "longitude": null,
    "latitude": null,
    "city": "Rockport",
    "country": "US",
    "country_code": "USA"
}, {
    "id": "/api/v1/locations/437",
    "longitude": 10.195617,
    "latitude": 43.956541,
    "city": "Lake Elmo",
    "country": "US",
    "country_code": "USA"
}, {
    "id": "/api/v1/locations/438",
    "longitude": -97.320388,
    "latitude": 38.043312,
    "city": "Newton",
    "country": "US",
    "country_code": "USA"
}, {
    "id": "/api/v1/locations/439",
    "longitude": -122.40764,
    "latitude": 47.382908,
    "city": "Vashon",
    "country": "US",
    "country_code": "USA"
}, {
    "id": "/api/v1/locations/440",
    "longitude": -103.84841,
    "latitude": 44.476166,
    "city": "Spearfish",
    "country": "US",
    "country_code": "USA"
}, {
    "id": "/api/v1/locations/441",
    "longitude": -108.241334,
    "latitude": 38.158896,
    "city": "Norwood",
    "country": "US",
    "country_code": "USA"
}, {
    "id": "/api/v1/locations/442",
    "longitude": -97.43459,
    "latitude": 32.73509,
    "city": "Fort Worth",
    "country": "US",
    "country_code": "USA"
}, {
    "id": "/api/v1/locations/443",
    "longitude": -122.021465,
    "latitude": 36.965324,
    "city": "Santa Cruz",
    "country": "US",
    "country_code": "USA"
}, {
    "id": "/api/v1/locations/444",
    "longitude": -122.40091,
    "latitude": 37.792336,
    "city": "San Francisco",
    "country": "US",
    "country_code": "USA"
}, {
    "id": "/api/v1/locations/445",
    "longitude": -82.54247,
    "latitude": 43.429146,
    "city": "Port Sanilac",
    "country": "US",
    "country_code": "USA"
}, {
    "id": "/api/v1/locations/446",
    "longitude": null,
    "latitude": null,
    "city": "Washington",
    "country": "US",
    "country_code": "USA"
}, {
    "id": "/api/v1/locations/447",
    "longitude": null,
    "latitude": null,
    "city": "Washington",
    "country": "US",
    "country_code": "USA"
}, {
    "id": "/api/v1/locations/448",
    "longitude": -119.656297,
    "latitude": 36.320124,
    "city": "Hanford",
    "country": "US",
    "country_code": "USA"
}, {
    "id": "/api/v1/locations/449",
    "longitude": -82.844245,
    "latitude": 27.850447,
    "city": "Indian Rocks Beach",
    "country": "US",
    "country_code": "USA"
}, {
    "id": "/api/v1/locations/450",
    "longitude": -69.910046,
    "latitude": 18.457572,
    "city": "New York",
    "country": "US",
    "country_code": "USA"
}, {
    "id": "/api/v1/locations/451",
    "longitude": -71.456495,
    "latitude": 41.428084,
    "city": "Narragansett",
    "country": "US",
    "country_code": "USA"
}, {
    "id": "/api/v1/locations/452",
    "longitude": -102.23931,
    "latitude": 43.98431,
    "city": "Wall",
    "country": "US",
    "country_code": "USA"
}, {
    "id": "/api/v1/locations/453",
    "longitude": 100.065182,
    "latitude": 9.486392,
    "city": "Eden",
    "country": "US",
    "country_code": "USA"
}, {
    "id": "/api/v1/locations/454",
    "longitude": -88.297272,
    "latitude": 42.228017,
    "city": "Crystal Lake",
    "country": "US",
    "country_code": "USA"
}, {
    "id": "/api/v1/locations/455",
    "longitude": -92.149721,
    "latitude": 37.82382,
    "city": "Saint Robert",
    "country": "US",
    "country_code": "USA"
}, {
    "id": "/api/v1/locations/456",
    "longitude": -111.40339,
    "latitude": 40.91089,
    "city": "Coalville",
    "country": "US",
    "country_code": "USA"
}, {
    "id": "/api/v1/locations/457",
    "longitude": -122.384637,
    "latitude": 40.60182,
    "city": "Redding",
    "country": "US",
    "country_code": "USA"
}, {
    "id": "/api/v1/locations/458",
    "longitude": -93.36861,
    "latitude": 43.64975,
    "city": "Albert Lea",
    "country": "US",
    "country_code": "USA"
}, {
    "id": "/api/v1/locations/459",
    "longitude": -93.291074,
    "latitude": 44.769267,
    "city": "Burnsville",
    "country": "US",
    "country_code": "USA"
}, {
    "id": "/api/v1/locations/460",
    "longitude": -74.073291,
    "latitude": 41.505388,
    "city": "Newburgh",
    "country": "US",
    "country_code": "USA"
}, {
    "id": "/api/v1/locations/461",
    "longitude": -93.154703,
    "latitude": 44.971064,
    "city": "Saint Paul",
    "country": "US",
    "country_code": "USA"
}, {
    "id": "/api/v1/locations/462",
    "longitude": -117.338229,
    "latitude": 34.020339,
    "city": "Colton",
    "country": "US",
    "country_code": "USA"
}, {
    "id": "/api/v1/locations/463",
    "longitude": -117.103404,
    "latitude": 47.766588,
    "city": "Newman Lake",
    "country": "US",
    "country_code": "USA"
}, {
    "id": "/api/v1/locations/464",
    "longitude": -84.91438,
    "latitude": 34.47029,
    "city": "Calhoun",
    "country": "US",
    "country_code": "USA"
}, {
    "id": "/api/v1/locations/465",
    "longitude": -86.22773,
    "latitude": 45.952175,
    "city": "Manistique",
    "country": "US",
    "country_code": "USA"
}, {
    "id": "/api/v1/locations/466",
    "longitude": -83.96907,
    "latitude": 43.48418,
    "city": "Saginaw",
    "country": "US",
    "country_code": "USA"
}, {
    "id": "/api/v1/locations/467",
    "longitude": -75.62609,
    "latitude": 40.362305,
    "city": "Exton",
    "country": "US",
    "country_code": "USA"
}, {
    "id": "/api/v1/locations/468",
    "longitude": null,
    "latitude": null,
    "city": "Fryeburg",
    "country": "US",
    "country_code": "USA"
}, {
    "id": "/api/v1/locations/469",
    "longitude": -88.7034,
    "latitude": 37.1605,
    "city": "Metropolis",
    "country": "US",
    "country_code": "USA"
}, {
    "id": "/api/v1/locations/470",
    "longitude": -84.618904,
    "latitude": 37.076744,
    "city": "Somerset",
    "country": "US",
    "country_code": "USA"
}, {
    "id": "/api/v1/locations/471",
    "longitude": -117.2996,
    "latitude": 45.417587,
    "city": "Enterprise",
    "country": "US",
    "country_code": "USA"
}, {
    "id": "/api/v1/locations/472",
    "longitude": 13.331846,
    "latitude": 38.160424,
    "city": "Palermo",
    "country": "US",
    "country_code": "USA"
}, {
    "id": "/api/v1/locations/473",
    "longitude": -76.86674,
    "latitude": 42.41823,
    "city": "Burdett",
    "country": "US",
    "country_code": "USA"
}, {
    "id": "/api/v1/locations/474",
    "longitude": -85.20835,
    "latitude": 34.991222,
    "city": "Chattanooga",
    "country": "US",
    "country_code": "USA"
}, {
    "id": "/api/v1/locations/475",
    "longitude": -75.591644,
    "latitude": 41.494293,
    "city": "Archbald",
    "country": "US",
    "country_code": "USA"
}, {
    "id": "/api/v1/locations/476",
    "longitude": null,
    "latitude": null,
    "city": "Des Plaines",
    "country": "US",
    "country_code": "USA"
}, {
    "id": "/api/v1/locations/477",
    "longitude": -93.279755,
    "latitude": 38.71274,
    "city": "Sedalia",
    "country": "US",
    "country_code": "USA"
}, {
    "id": "/api/v1/locations/478",
    "longitude": -76.07916895,
    "latitude": 43.09081892,
    "city": "East Syracuse",
    "country": "US",
    "country_code": "USA"
}, {
    "id": "/api/v1/locations/479",
    "longitude": -123.04228,
    "latitude": 44.08588,
    "city": "Springfield",
    "country": "US",
    "country_code": "USA"
}, {
    "id": "/api/v1/locations/480",
    "longitude": -122.384362,
    "latitude": 40.599105,
    "city": "Redding",
    "country": "US",
    "country_code": "USA"
}, {
    "id": "/api/v1/locations/481",
    "longitude": -89.7989,
    "latitude": 35.03692,
    "city": "Memphis",
    "country": "US",
    "country_code": "USA"
}, {
    "id": "/api/v1/locations/482",
    "longitude": -89.456966,
    "latitude": 41.368016,
    "city": "Princeton",
    "country": "US",
    "country_code": "USA"
}, {
    "id": "/api/v1/locations/483",
    "longitude": -123.038539,
    "latitude": 48.540152,
    "city": "Friday Harbor",
    "country": "US",
    "country_code": "USA"
}, {
    "id": "/api/v1/locations/484",
    "longitude": -99.12564,
    "latitude": 41.781994,
    "city": "Burwell",
    "country": "US",
    "country_code": "USA"
}, {
    "id": "/api/v1/locations/485",
    "longitude": -114.577492,
    "latitude": 35.144281,
    "city": "Laughlin",
    "country": "US",
    "country_code": "USA"
}, {
    "id": "/api/v1/locations/486",
    "longitude": -94.3571,
    "latitude": 38.90314,
    "city": "Lees Summit",
    "country": "US",
    "country_code": "USA"
}, {
    "id": "/api/v1/locations/487",
    "longitude": -81.1486,
    "latitude": 32.10299,
    "city": "Savannah",
    "country": "US",
    "country_code": "USA"
}, {
    "id": "/api/v1/locations/488",
    "longitude": 12.33551,
    "latitude": 45.431943,
    "city": "Cave Spring",
    "country": "US",
    "country_code": "USA"
}, {
    "id": "/api/v1/locations/489",
    "longitude": -92.071014,
    "latitude": 30.515139,
    "city": "Opelousas",
    "country": "US",
    "country_code": "USA"
}, {
    "id": "/api/v1/locations/490",
    "longitude": 2.282725,
    "latitude": 48.868568,
    "city": "Irving",
    "country": "US",
    "country_code": "USA"
}, {
    "id": "/api/v1/locations/491",
    "longitude": 8.81226,
    "latitude": 45.54057,
    "city": "Washington",
    "country": "US",
    "country_code": "USA"
}, {
    "id": "/api/v1/locations/492",
    "longitude": -86.18567,
    "latitude": 41.70449,
    "city": "Mishawaka",
    "country": "US",
    "country_code": "USA"
}, {
    "id": "/api/v1/locations/493",
    "longitude": -111.67105,
    "latitude": 32.8064,
    "city": "Eloy",
    "country": "US",
    "country_code": "USA"
}, {
    "id": "/api/v1/locations/494",
    "longitude": -120.29131,
    "latitude": 47.412354,
    "city": "East Wenatchee",
    "country": "US",
    "country_code": "USA"
}, {
    "id": "/api/v1/locations/495",
    "longitude": -80.7538,
    "latitude": 35.30077,
    "city": "Charlotte",
    "country": "US",
    "country_code": "USA"
}, {
    "id": "/api/v1/locations/496",
    "longitude": -88.85688,
    "latitude": 35.661729,
    "city": "Jackson",
    "country": "US",
    "country_code": "USA"
}, {
    "id": "/api/v1/locations/497",
    "longitude": -89.856893,
    "latitude": 34.963657,
    "city": "Olive Branch",
    "country": "US",
    "country_code": "USA"
}, {
    "id": "/api/v1/locations/498",
    "longitude": -106.830495,
    "latitude": 39.659771,
    "city": "Eagle",
    "country": "US",
    "country_code": "USA"
}, {
    "id": "/api/v1/locations/499",
    "longitude": -76.903755,
    "latitude": 38.996452,
    "city": "College Park",
    "country": "US",
    "country_code": "USA"
}, {
    "id": "/api/v1/locations/500",
    "longitude": -118.309143,
    "latitude": 33.886224,
    "city": "Gardena",
    "country": "US",
    "country_code": "USA"
}, {
    "id": "/api/v1/locations/501",
    "longitude": -95.362277,
    "latitude": 29.940256,
    "city": "Houston",
    "country": "US",
    "country_code": "USA"
}, {
    "id": "/api/v1/locations/502",
    "longitude": -71.141015,
    "latitude": 44.074067,
    "city": "North Conway",
    "country": "US",
    "country_code": "USA"
}, {
    "id": "/api/v1/locations/503",
    "longitude": -83.969034,
    "latitude": 36.014181,
    "city": "Knoxville",
    "country": "US",
    "country_code": "USA"
}, {
    "id": "/api/v1/locations/504",
    "longitude": 115.164407,
    "latitude": -8.700062,
    "city": "Arvada",
    "country": "US",
    "country_code": "USA"
}, {
    "id": "/api/v1/locations/505",
    "longitude": -80.16579,
    "latitude": 41.143414,
    "city": "Mercer",
    "country": "US",
    "country_code": "USA"
}, {
    "id": "/api/v1/locations/506",
    "longitude": -122.408516,
    "latitude": 37.617582,
    "city": "San Bruno",
    "country": "US",
    "country_code": "USA"
}, {
    "id": "/api/v1/locations/507",
    "longitude": -75.53122,
    "latitude": 40.57584,
    "city": "Allentown",
    "country": "US",
    "country_code": "USA"
}, {
    "id": "/api/v1/locations/508",
    "longitude": -89.035188,
    "latitude": 40.487383,
    "city": "Bloomington",
    "country": "US",
    "country_code": "USA"
}, {
    "id": "/api/v1/locations/509",
    "longitude": -90.494614,
    "latitude": 38.770776,
    "city": "Saint Charles",
    "country": "US",
    "country_code": "USA"
}, {
    "id": "/api/v1/locations/510",
    "longitude": -120.851159,
    "latitude": 35.364612,
    "city": "Morro Bay",
    "country": "US",
    "country_code": "USA"
}, {
    "id": "/api/v1/locations/511",
    "longitude": -120.43602,
    "latitude": 34.94034,
    "city": "Santa Maria",
    "country": "US",
    "country_code": "USA"
}, {
    "id": "/api/v1/locations/512",
    "longitude": -76.29837,
    "latitude": 39.98925,
    "city": "Lancaster",
    "country": "US",
    "country_code": "USA"
}, {
    "id": "/api/v1/locations/513",
    "longitude": -81.297208,
    "latitude": 29.054737,
    "city": "Deland",
    "country": "US",
    "country_code": "USA"
}, {
    "id": "/api/v1/locations/514",
    "longitude": -79.399055,
    "latitude": 39.420506,
    "city": "Oakland",
    "country": "US",
    "country_code": "USA"
}, {
    "id": "/api/v1/locations/515",
    "longitude": -83.39095,
    "latitude": 42.05927,
    "city": "Carleton",
    "country": "US",
    "country_code": "USA"
}, {
    "id": "/api/v1/locations/516",
    "longitude": -87.94045,
    "latitude": 43.55906,
    "city": "Random Lake",
    "country": "US",
    "country_code": "USA"
}, {
    "id": "/api/v1/locations/517",
    "longitude": -90.37126,
    "latitude": 40.94788,
    "city": "Galesburg",
    "country": "US",
    "country_code": "USA"
}, {
    "id": "/api/v1/locations/518",
    "longitude": -77.47481,
    "latitude": 37.56611,
    "city": "Richmond",
    "country": "US",
    "country_code": "USA"
}, {
    "id": "/api/v1/locations/519",
    "longitude": -116.325745,
    "latitude": 34.13495,
    "city": "Joshua Tree",
    "country": "US",
    "country_code": "USA"
}, {
    "id": "/api/v1/locations/520",
    "longitude": -83.241718,
    "latitude": 42.472016,
    "city": "Southfield",
    "country": "US",
    "country_code": "USA"
}, {
    "id": "/api/v1/locations/521",
    "longitude": -118.189464,
    "latitude": 33.78864,
    "city": "Long Beach",
    "country": "US",
    "country_code": "USA"
}, {
    "id": "/api/v1/locations/522",
    "longitude": -84.345601,
    "latitude": 37.6168,
    "city": "Berea",
    "country": "US",
    "country_code": "USA"
}, {
    "id": "/api/v1/locations/523",
    "longitude": -100.423775,
    "latitude": 45.537468,
    "city": "Mobridge",
    "country": "US",
    "country_code": "USA"
}, {
    "id": "/api/v1/locations/524",
    "longitude": -76.755591,
    "latitude": 39.184298,
    "city": "Elkridge",
    "country": "US",
    "country_code": "USA"
}, {
    "id": "/api/v1/locations/525",
    "longitude": -85.2837,
    "latitude": 31.55176,
    "city": "Abbeville",
    "country": "US",
    "country_code": "USA"
}, {
    "id": "/api/v1/locations/526",
    "longitude": -88.9489,
    "latitude": 38.31069,
    "city": "Mount Vernon",
    "country": "US",
    "country_code": "USA"
}, {
    "id": "/api/v1/locations/527",
    "longitude": -112.06685,
    "latitude": 33.45499,
    "city": "Phoenix",
    "country": "US",
    "country_code": "USA"
}, {
    "id": "/api/v1/locations/528",
    "longitude": -86.46892,
    "latitude": 34.667004,
    "city": "Huntsville",
    "country": "US",
    "country_code": "USA"
}, {
    "id": "/api/v1/locations/529",
    "longitude": -114.30526,
    "latitude": 48.18245,
    "city": "Kalispell",
    "country": "US",
    "country_code": "USA"
}, {
    "id": "/api/v1/locations/530",
    "longitude": -85.961849,
    "latitude": 36.954535,
    "city": "Glasgow",
    "country": "US",
    "country_code": "USA"
}, {
    "id": "/api/v1/locations/531",
    "longitude": -114.71284,
    "latitude": 42.944965,
    "city": "Gooding",
    "country": "US",
    "country_code": "USA"
}, {
    "id": "/api/v1/locations/532",
    "longitude": -86.194987,
    "latitude": 33.218275,
    "city": "Sylacauga",
    "country": "US",
    "country_code": "USA"
}, {
    "id": "/api/v1/locations/533",
    "longitude": 9.234449,
    "latitude": 45.987791,
    "city": "Griante",
    "country": "US",
    "country_code": "USA"
}, {
    "id": "/api/v1/locations/534",
    "longitude": -98.47863,
    "latitude": 28.967194,
    "city": "Pleasanton",
    "country": "US",
    "country_code": "USA"
}, {
    "id": "/api/v1/locations/535",
    "longitude": 6.961262,
    "latitude": 50.939736,
    "city": "Raymond",
    "country": "US",
    "country_code": "USA"
}, {
    "id": "/api/v1/locations/536",
    "longitude": -117.181962,
    "latitude": 32.759003,
    "city": "San Diego",
    "country": "US",
    "country_code": "USA"
}, {
    "id": "/api/v1/locations/537",
    "longitude": -80.601702,
    "latitude": 36.480987,
    "city": "Mount Airy",
    "country": "US",
    "country_code": "USA"
}, {
    "id": "/api/v1/locations/538",
    "longitude": -111.55332,
    "latitude": 40.728523,
    "city": "Park City",
    "country": "US",
    "country_code": "USA"
}, {
    "id": "/api/v1/locations/539",
    "longitude": 2.38803,
    "latitude": 48.85366,
    "city": "Carrollton",
    "country": "US",
    "country_code": "USA"
}, {
    "id": "/api/v1/locations/540",
    "longitude": -69.07486,
    "latitude": 44.20244,
    "city": "Camden",
    "country": "US",
    "country_code": "USA"
}, {
    "id": "/api/v1/locations/541",
    "longitude": -68.77128,
    "latitude": 44.56941,
    "city": "Bucksport",
    "country": "US",
    "country_code": "USA"
}, {
    "id": "/api/v1/locations/542",
    "longitude": -82.739915,
    "latitude": 28.10667,
    "city": "Palm Harbor",
    "country": "US",
    "country_code": "USA"
}, {
    "id": "/api/v1/locations/543",
    "longitude": -116.90273,
    "latitude": 47.66414,
    "city": "Coeur D Alene",
    "country": "US",
    "country_code": "USA"
}, {
    "id": "/api/v1/locations/544",
    "longitude": -82.549741,
    "latitude": 27.381832,
    "city": "Sarasota",
    "country": "US",
    "country_code": "USA"
}, {
    "id": "/api/v1/locations/545",
    "longitude": -77.779928,
    "latitude": 40.883027,
    "city": "Bellefonte",
    "country": "US",
    "country_code": "USA"
}, {
    "id": "/api/v1/locations/546",
    "longitude": -72.837151,
    "latitude": 41.672491,
    "city": "Plainville",
    "country": "US",
    "country_code": "USA"
}, {
    "id": "/api/v1/locations/547",
    "longitude": -87.8897,
    "latitude": 42.1531,
    "city": "Deerfield",
    "country": "US",
    "country_code": "USA"
}, {
    "id": "/api/v1/locations/548",
    "longitude": -75.35352,
    "latitude": 41.052673,
    "city": "Tannersville",
    "country": "US",
    "country_code": "USA"
}, {
    "id": "/api/v1/locations/549",
    "longitude": -111.50604,
    "latitude": 40.65143,
    "city": "Park City",
    "country": "US",
    "country_code": "USA"
}, {
    "id": "/api/v1/locations/550",
    "longitude": -84.3485,
    "latitude": 33.918756,
    "city": "Atlanta",
    "country": "US",
    "country_code": "USA"
}, {
    "id": "/api/v1/locations/551",
    "longitude": -110.762266,
    "latitude": 43.484384,
    "city": "Jackson",
    "country": "US",
    "country_code": "USA"
}, {
    "id": "/api/v1/locations/552",
    "longitude": -109.0812,
    "latitude": 44.51714,
    "city": "Cody",
    "country": "US",
    "country_code": "USA"
}, {
    "id": "/api/v1/locations/553",
    "longitude": -74.5755,
    "latitude": 39.27588,
    "city": "Ocean City",
    "country": "US",
    "country_code": "USA"
}, {
    "id": "/api/v1/locations/554",
    "longitude": -76.50861875,
    "latitude": 43.45818526,
    "city": "Oswego",
    "country": "US",
    "country_code": "USA"
}, {
    "id": "/api/v1/locations/555",
    "longitude": -73.939324,
    "latitude": 42.764084,
    "city": "Schenectady",
    "country": "US",
    "country_code": "USA"
}, {
    "id": "/api/v1/locations/556",
    "longitude": -106.34292,
    "latitude": 31.75071,
    "city": "El Paso",
    "country": "US",
    "country_code": "USA"
}, {
    "id": "/api/v1/locations/557",
    "longitude": -81.16052,
    "latitude": 34.09128,
    "city": "Irmo",
    "country": "US",
    "country_code": "USA"
}, {
    "id": "/api/v1/locations/558",
    "longitude": -117.209891,
    "latitude": 32.724775,
    "city": "San Diego",
    "country": "US",
    "country_code": "USA"
}, {
    "id": "/api/v1/locations/559",
    "longitude": -97.495296,
    "latitude": 35.351797,
    "city": "Moore",
    "country": "US",
    "country_code": "USA"
}, {
    "id": "/api/v1/locations/560",
    "longitude": -83.933687,
    "latitude": 43.625193,
    "city": "Bay City",
    "country": "US",
    "country_code": "USA"
}, {
    "id": "/api/v1/locations/561",
    "longitude": -122.463291,
    "latitude": 47.178315,
    "city": "Tacoma",
    "country": "US",
    "country_code": "USA"
}, {
    "id": "/api/v1/locations/562",
    "longitude": -114.15178,
    "latitude": 48.36373,
    "city": "Columbia Falls",
    "country": "US",
    "country_code": "USA"
}, {
    "id": "/api/v1/locations/563",
    "longitude": -88.37131,
    "latitude": 44.30017,
    "city": "Appleton",
    "country": "US",
    "country_code": "USA"
}, {
    "id": "/api/v1/locations/564",
    "longitude": -82.450461,
    "latitude": 27.300319,
    "city": "Sarasota",
    "country": "US",
    "country_code": "USA"
}, {
    "id": "/api/v1/locations/565",
    "longitude": -83.611885,
    "latitude": 39.61573,
    "city": "Jeffersonville",
    "country": "US",
    "country_code": "USA"
}, {
    "id": "/api/v1/locations/566",
    "longitude": -90.448875,
    "latitude": 42.437138,
    "city": "Galena",
    "country": "US",
    "country_code": "USA"
}, {
    "id": "/api/v1/locations/567",
    "longitude": -92.72739,
    "latitude": 41.757133,
    "city": "Grinnell",
    "country": "US",
    "country_code": "USA"
}, {
    "id": "/api/v1/locations/568",
    "longitude": -80.03187,
    "latitude": 37.265157,
    "city": "Salem",
    "country": "US",
    "country_code": "USA"
}, {
    "id": "/api/v1/locations/569",
    "longitude": -71.12477,
    "latitude": 44.04869,
    "city": "North Conway",
    "country": "US",
    "country_code": "USA"
}, {
    "id": "/api/v1/locations/570",
    "longitude": -71.461518,
    "latitude": 41.431695,
    "city": "Narragansett",
    "country": "US",
    "country_code": "USA"
}, {
    "id": "/api/v1/locations/571",
    "longitude": -86.86814,
    "latitude": 20.87549,
    "city": "Mont Belvieu",
    "country": "US",
    "country_code": "USA"
}, {
    "id": "/api/v1/locations/572",
    "longitude": -77.07247,
    "latitude": 38.89493,
    "city": "Arlington",
    "country": "US",
    "country_code": "USA"
}, {
    "id": "/api/v1/locations/573",
    "longitude": -83.61899,
    "latitude": 41.374508,
    "city": "Bowling Green",
    "country": "US",
    "country_code": "USA"
}, {
    "id": "/api/v1/locations/574",
    "longitude": 12.34551,
    "latitude": 45.43393,
    "city": "Lithia Springs",
    "country": "US",
    "country_code": "USA"
}, {
    "id": "/api/v1/locations/575",
    "longitude": -82.318704,
    "latitude": 26.935162,
    "city": "Englewood",
    "country": "US",
    "country_code": "USA"
}, {
    "id": "/api/v1/locations/576",
    "longitude": -110.76506,
    "latitude": 43.48286,
    "city": "Jackson",
    "country": "US",
    "country_code": "USA"
}, {
    "id": "/api/v1/locations/577",
    "longitude": -96.98471,
    "latitude": 40.62246,
    "city": "Crete",
    "country": "US",
    "country_code": "USA"
}, {
    "id": "/api/v1/locations/578",
    "longitude": -77.07787,
    "latitude": 41.807106,
    "city": "Mansfield",
    "country": "US",
    "country_code": "USA"
}, {
    "id": "/api/v1/locations/579",
    "longitude": 8.89878,
    "latitude": 41.69702,
    "city": "Manassas",
    "country": "US",
    "country_code": "USA"
}, {
    "id": "/api/v1/locations/580",
    "longitude": -80.10058,
    "latitude": 40.67519,
    "city": "Cranberry Twp",
    "country": "US",
    "country_code": "USA"
}, {
    "id": "/api/v1/locations/581",
    "longitude": -90.184037,
    "latitude": 38.633021,
    "city": "Saint Louis",
    "country": "US",
    "country_code": "USA"
}, {
    "id": "/api/v1/locations/582",
    "longitude": -87.27365,
    "latitude": 20.45379,
    "city": "Beaumont",
    "country": "US",
    "country_code": "USA"
}, {
    "id": "/api/v1/locations/583",
    "longitude": -97.9903,
    "latitude": 29.824612,
    "city": "San Marcos",
    "country": "US",
    "country_code": "USA"
}, {
    "id": "/api/v1/locations/584",
    "longitude": -103.81403,
    "latitude": 44.48047,
    "city": "Spearfish",
    "country": "US",
    "country_code": "USA"
}, {
    "id": "/api/v1/locations/585",
    "longitude": -85.5323,
    "latitude": 42.91294,
    "city": "Grand Rapids",
    "country": "US",
    "country_code": "USA"
}, {
    "id": "/api/v1/locations/586",
    "longitude": 11.245648,
    "latitude": 43.775491,
    "city": "Humeston",
    "country": "US",
    "country_code": "USA"
}, {
    "id": "/api/v1/locations/587",
    "longitude": -77.3928,
    "latitude": 37.229694,
    "city": "Petersburg",
    "country": "US",
    "country_code": "USA"
}, {
    "id": "/api/v1/locations/588",
    "longitude": -87.884415,
    "latitude": 41.930763,
    "city": "Franklin Park",
    "country": "US",
    "country_code": "USA"
}, {
    "id": "/api/v1/locations/589",
    "longitude": -82.140756,
    "latitude": 28.66875,
    "city": "Bushnell",
    "country": "US",
    "country_code": "USA"
}, {
    "id": "/api/v1/locations/590",
    "longitude": -84.09107,
    "latitude": 35.91483,
    "city": "Knoxville",
    "country": "US",
    "country_code": "USA"
}, {
    "id": "/api/v1/locations/591",
    "longitude": -84.78837,
    "latitude": 43.830013,
    "city": "Clare",
    "country": "US",
    "country_code": "USA"
}, {
    "id": "/api/v1/locations/592",
    "longitude": -122.663345,
    "latitude": 42.183544,
    "city": "Ashland",
    "country": "US",
    "country_code": "USA"
}, {
    "id": "/api/v1/locations/593",
    "longitude": -156.458353,
    "latitude": 20.763436,
    "city": "Kihei",
    "country": "US",
    "country_code": "USA"
}, {
    "id": "/api/v1/locations/594",
    "longitude": -87.820893,
    "latitude": 42.103679,
    "city": "Glenview",
    "country": "US",
    "country_code": "USA"
}, {
    "id": "/api/v1/locations/595",
    "longitude": -123.29112,
    "latitude": 42.944057,
    "city": "Canyonville",
    "country": "US",
    "country_code": "USA"
}, {
    "id": "/api/v1/locations/596",
    "longitude": -85.9343,
    "latitude": 36.985054,
    "city": "Glasgow",
    "country": "US",
    "country_code": "USA"
}, {
    "id": "/api/v1/locations/597",
    "longitude": 32.622334,
    "latitude": 40.45411,
    "city": "Southport",
    "country": "US",
    "country_code": "USA"
}, {
    "id": "/api/v1/locations/598",
    "longitude": 6.540197,
    "latitude": 45.313678,
    "city": "Lebanon",
    "country": "US",
    "country_code": "USA"
}, {
    "id": "/api/v1/locations/599",
    "longitude": -84.46426,
    "latitude": 34.255254,
    "city": "Canton",
    "country": "US",
    "country_code": "USA"
}, {
    "id": "/api/v1/locations/600",
    "longitude": -86.715389,
    "latitude": 33.529422,
    "city": "Birmingham",
    "country": "US",
    "country_code": "USA"
}, {
    "id": "/api/v1/locations/601",
    "longitude": -83.47497,
    "latitude": 33.55675,
    "city": "Madison",
    "country": "US",
    "country_code": "USA"
},