[{
    "@context": "/api/v1/contexts/location",
    "@id": "/api/v1/locations/0",
    "@type": "Location",
    "longitude": 12.376187,
    "latitude": 45.421611,
    "city": "Mableton",
    "country": "US",
    "country_code": "USA"
}, {
    "@context": "/api/v1/contexts/location",
    "@id": "/api/v1/locations/1",
    "@type": "Location",
    "longitude": -95.788826,
    "latitude": 40.68973,
    "city": "Percival",
    "country": "US",
    "country_code": "USA"
}, {
    "@context": "/api/v1/contexts/location",
    "@id": "/api/v1/locations/2",
    "@type": "Location",
    "longitude": -120.115036,
    "latitude": 34.664684,
    "city": "Los Olivos",
    "country": "US",
    "country_code": "USA"
}, {
    "@context": "/api/v1/contexts/location",
    "@id": "/api/v1/locations/3",
    "@type": "Location",
    "longitude": -97.849655,
    "latitude": 28.793795,
    "city": "Kenedy",
    "country": "US",
    "country_code": "USA"
}, {
    "@context": "/api/v1/contexts/location",
    "@id": "/api/v1/locations/4",
    "@type": "Location",
    "longitude": -116.54269,
    "latitude": 33.802822,
    "city": "Palm Springs",
    "country": "US",
    "country_code": "USA"
}, {
    "@context": "/api/v1/contexts/location",
    "@id": "/api/v1/locations/5",
    "@type": "Location",
    "longitude": -95.402996,
    "latitude": 29.681085,
    "city": "Houston",
    "country": "US",
    "country_code": "USA"
}, {
    "@context": "/api/v1/contexts/location",
    "@id": "/api/v1/locations/6",
    "@type": "Location",
    "longitude": -112.185661,
    "latitude": 33.620773,
    "city": "Glendale",
    "country": "US",
    "country_code": "USA"
}, {
    "@context": "/api/v1/contexts/location",
    "@id": "/api/v1/locations/7",
    "@type": "Location",
    "longitude": -110.735886,
    "latitude": 46.933598,
    "city": "Neihart",
    "country": "US",
    "country_code": "USA"
}, {
    "@context": "/api/v1/contexts/location",
    "@id": "/api/v1/locations/8",
    "@type": "Location",
    "longitude": -121.77371,
    "latitude": 37.698349,
    "city": "Livermore",
    "country": "US",
    "country_code": "USA"
}, {
    "@context": "/api/v1/contexts/location",
    "@id": "/api/v1/locations/9",
    "@type": "Location",
    "longitude": -75.905832,
    "latitude": 42.130338,
    "city": "Binghamton",
    "country": "US",
    "country_code": "USA"
}, {
    "@context": "/api/v1/contexts/location",
    "@id": "/api/v1/locations/10",
    "@type": "Location",
    "longitude": -82.79705,
    "latitude": 41.44144,
    "city": "Sandusky",
    "country": "US",
    "country_code": "USA"
}, {
    "@context": "/api/v1/contexts/location",
    "@id": "/api/v1/locations/11",
    "@type": "Location",
    "longitude": -94.15933,
    "latitude": 30.03867,
    "city": "Beaumont",
    "country": "US",
    "country_code": "USA"
}, {
    "@context": "/api/v1/contexts/location",
    "@id": "/api/v1/locations/12",
    "@type": "Location",
    "longitude": -97.97284,
    "latitude": 35.50517,
    "city": "El Reno",
    "country": "US",
    "country_code": "USA"
}, {
    "@context": "/api/v1/contexts/location",
    "@id": "/api/v1/locations/13",
    "@type": "Location",
    "longitude": -122.42104,
    "latitude": 45.53678,
    "city": "Troutdale",
    "country": "US",
    "country_code": "USA"
}, {
    "@context": "/api/v1/contexts/location",
    "@id": "/api/v1/locations/14",
    "@type": "Location",
    "longitude": -88.062045,
    "latitude": 30.684177,
    "city": "Mobile",
    "country": "US",
    "country_code": "USA"
}, {
    "@context": "/api/v1/contexts/location",
    "@id": "/api/v1/locations/15",
    "@type": "Location",
    "longitude": -157.830789,
    "latitude": 21.281574,
    "city": "Honolulu",
    "country": "US",
    "country_code": "USA"
}, {
    "@context": "/api/v1/contexts/location",
    "@id": "/api/v1/locations/16",
    "@type": "Location",
    "longitude": 11.75432,
    "latitude": 54.1533,
    "city": "Harleigh",
    "country": "US",
    "country_code": "USA"
}, {
    "@context": "/api/v1/contexts/location",
    "@id": "/api/v1/locations/17",
    "@type": "Location",
    "longitude": -74.336525,
    "latitude": 44.304794,
    "city": "Saranac Lake",
    "country": "US",
    "country_code": "USA"
}, {
    "@context": "/api/v1/contexts/location",
    "@id": "/api/v1/locations/18",
    "@type": "Location",
    "longitude": -95.459631,
    "latitude": 29.768461,
    "city": "Houston",
    "country": "US",
    "country_code": "USA"
}, {
    "@context": "/api/v1/contexts/location",
    "@id": "/api/v1/locations/19",
    "@type": "Location",
    "longitude": -117.411305,
    "latitude": 47.686226,
    "city": "Spokane",
    "country": "US",
    "country_code": "USA"
}, {
    "@context": "/api/v1/contexts/location",
    "@id": "/api/v1/locations/20",
    "@type": "Location",
    "longitude": -69.64012,
    "latitude": 44.57059,
    "city": "Waterville",
    "country": "US",
    "country_code": "USA"
}, {
    "@context": "/api/v1/contexts/location",
    "@id": "/api/v1/locations/21",
    "@type": "Location",
    "longitude": -86.21178,
    "latitude": 42.621235,
    "city": "Fennville",
    "country": "US",
    "country_code": "USA"
}, {
    "@context": "/api/v1/contexts/location",
    "@id": "/api/v1/locations/22",
    "@type": "Location",
    "longitude": -92.28914,
    "latitude": 38.96124,
    "city": "Columbia",
    "country": "US",
    "country_code": "USA"
}, {
    "@context": "/api/v1/contexts/location",
    "@id": "/api/v1/locations/23",
    "@type": "Location",
    "longitude": -92.629776,
    "latitude": 38.14468,
    "city": "Osage Beach",
    "country": "US",
    "country_code": "USA"
}, {
    "@context": "/api/v1/contexts/location",
    "@id": "/api/v1/locations/24",
    "@type": "Location",
    "longitude": -81.02341,
    "latitude": 34.06241,
    "city": "Columbia",
    "country": "US",
    "country_code": "USA"
}, {
    "@context": "/api/v1/contexts/location",
    "@id": "/api/v1/locations/25",
    "@type": "Location",
    "longitude": -70.47717,
    "latitude": 43.36319,
    "city": "Kennebunkport",
    "country": "US",
    "country_code": "USA"
}, {
    "@context": "/api/v1/contexts/location",
    "@id": "/api/v1/locations/26",
    "@type": "Location",
    "longitude": -86.84786,
    "latitude": 20.90572,
    "city": "Mont Belvieu",
    "country": "US",
    "country_code": "USA"
}, {
    "@context": "/api/v1/contexts/location",
    "@id": "/api/v1/locations/27",
    "@type": "Location",
    "longitude": -97.60122,
    "latitude": 35.463253,
    "city": "Oklahoma City",
    "country": "US",
    "country_code": "USA"
}, {
    "@context": "/api/v1/contexts/location",
    "@id": "/api/v1/locations/28",
    "@type": "Location",
    "longitude": -80.09953,
    "latitude": 26.174261,
    "city": "Fort Lauderdale",
    "country": "US",
    "country_code": "USA"
}, {
    "@context": "/api/v1/contexts/location",
    "@id": "/api/v1/locations/29",
    "@type": "Location",
    "longitude": -93.26739,
    "latitude": 36.65133,
    "city": "Branson",
    "country": "US",
    "country_code": "USA"
}, {
    "@context": "/api/v1/contexts/location",
    "@id": "/api/v1/locations/30",
    "@type": "Location",
    "longitude": -92.010704,
    "latitude": 43.56077,
    "city": "Harmony",
    "country": "US",
    "country_code": "USA"
}, {
    "@context": "/api/v1/contexts/location",
    "@id": "/api/v1/locations/31",
    "@type": "Location",
    "longitude": null,
    "latitude": null,
    "city": "Boston",
    "country": "US",
    "country_code": "USA"
}, {
    "@context": "/api/v1/contexts/location",
    "@id": "/api/v1/locations/32",
    "@type": "Location",
    "longitude": null,
    "latitude": null,
    "city": "Boston",
    "country": "US",
    "country_code": "USA"
}, {
    "@context": "/api/v1/contexts/location",
    "@id": "/api/v1/locations/33",
    "@type": "Location",
    "longitude": null,
    "latitude": null,
    "city": "Boston",
    "country": "US",
    "country_code": "USA"
}, {
    "@context": "/api/v1/contexts/location",
    "@id": "/api/v1/locations/34",
    "@type": "Location",
    "longitude": null,
    "latitude": null,
    "city": "Boston",
    "country": "US",
    "country_code": "USA"
}, {
    "@context": "/api/v1/contexts/location",
    "@id": "/api/v1/locations/35",
    "@type": "Location",
    "longitude": null,
    "latitude": null,
    "city": "Boston",
    "country": "US",
    "country_code": "USA"
}, {
    "@context": "/api/v1/contexts/location",
    "@id": "/api/v1/locations/36",
    "@type": "Location",
    "longitude": null,
    "latitude": null,
    "city": "Boston",
    "country": "US",
    "country_code": "USA"
}, {
    "@context": "/api/v1/contexts/location",
    "@id": "/api/v1/locations/37",
    "@type": "Location",
    "longitude": null,
    "latitude": null,
    "city": "Boston",
    "country": "US",
    "country_code": "USA"
}, {
    "@context": "/api/v1/contexts/location",
    "@id": "/api/v1/locations/38",
    "@type": "Location",
    "longitude": null,
    "latitude": null,
    "city": "Boston",
    "country": "US",
    "country_code": "USA"
}, {
    "@context": "/api/v1/contexts/location",
    "@id": "/api/v1/locations/39",
    "@type": "Location",
    "longitude": null,
    "latitude": null,
    "city": "Boston",
    "country": "US",
    "country_code": "USA"
}, {
    "@context": "/api/v1/contexts/location",
    "@id": "/api/v1/locations/40",
    "@type": "Location",
    "longitude": null,
    "latitude": null,
    "city": "Boston",
    "country": "US",
    "country_code": "USA"
}, {
    "@context": "/api/v1/contexts/location",
    "@id": "/api/v1/locations/41",
    "@type": "Location",
    "longitude": null,
    "latitude": null,
    "city": "Boston",
    "country": "US",
    "country_code": "USA"
}, {
    "@context": "/api/v1/contexts/location",
    "@id": "/api/v1/locations/42",
    "@type": "Location",
    "longitude": null,
    "latitude": null,
    "city": "Boston",
    "country": "US",
    "country_code": "USA"
}, {
    "@context": "/api/v1/contexts/location",
    "@id": "/api/v1/locations/43",
    "@type": "Location",
    "longitude": null,
    "latitude": null,
    "city": "Boston",
    "country": "US",
    "country_code": "USA"
}, {
    "@context": "/api/v1/contexts/location",
    "@id": "/api/v1/locations/44",
    "@type": "Location",
    "longitude": null,
    "latitude": null,
    "city": "Boston",
    "country": "US",
    "country_code": "USA"
}, {
    "@context": "/api/v1/contexts/location",
    "@id": "/api/v1/locations/45",
    "@type": "Location",
    "longitude": null,
    "latitude": null,
    "city": "Boston",
    "country": "US",
    "country_code": "USA"
}, {
    "@context": "/api/v1/contexts/location",
    "@id": "/api/v1/locations/46",
    "@type": "Location",
    "longitude": null,
    "latitude": null,
    "city": "Boston",
    "country": "US",
    "country_code": "USA"
}, {
    "@context": "/api/v1/contexts/location",
    "@id": "/api/v1/locations/47",
    "@type": "Location",
    "longitude": null,
    "latitude": null,
    "city": "Boston",
    "country": "US",
    "country_code": "USA"
}, {
    "@context": "/api/v1/contexts/location",
    "@id": "/api/v1/locations/48",
    "@type": "Location",
    "longitude": null,
    "latitude": null,
    "city": "Boston",
    "country": "US",
    "country_code": "USA"
}, {
    "@context": "/api/v1/contexts/location",
    "@id": "/api/v1/locations/49",
    "@type": "Location",
    "longitude": null,
    "latitude": null,
    "city": "Boston",
    "country": "US",
    "country_code": "USA"
}, {
    "@context": "/api/v1/contexts/location",
    "@id": "/api/v1/locations/50",
    "@type": "Location",
    "longitude": null,
    "latitude": null,
    "city": "Boston",
    "country": "US",
    "country_code": "USA"
}, {
    "@context": "/api/v1/contexts/location",
    "@id": "/api/v1/locations/51",
    "@type": "Location",
    "longitude": null,
    "latitude": null,
    "city": "Boston",
    "country": "US",
    "country_code": "USA"
}, {
    "@context": "/api/v1/contexts/location",
    "@id": "/api/v1/locations/52",
    "@type": "Location",
    "longitude": null,
    "latitude": null,
    "city": "Boston",
    "country": "US",
    "country_code": "USA"
}, {
    "@context": "/api/v1/contexts/location",
    "@id": "/api/v1/locations/53",
    "@type": "Location",
    "longitude": null,
    "latitude": null,
    "city": "Boston",
    "country": "US",
    "country_code": "USA"
}, {
    "@context": "/api/v1/contexts/location",
    "@id": "/api/v1/locations/54",
    "@type": "Location",
    "longitude": null,
    "latitude": null,
    "city": "Boston",
    "country": "US",
    "country_code": "USA"
}, {
    "@context": "/api/v1/contexts/location",
    "@id": "/api/v1/locations/55",
    "@type": "Location",
    "longitude": null,
    "latitude": null,
    "city": "Boston",
    "country": "US",
    "country_code": "USA"
}, {
    "@context": "/api/v1/contexts/location",
    "@id": "/api/v1/locations/56",
    "@type": "Location",
    "longitude": null,
    "latitude": null,
    "city": "Boston",
    "country": "US",
    "country_code": "USA"
}, {
    "@context": "/api/v1/contexts/location",
    "@id": "/api/v1/locations/57",
    "@type": "Location",
    "longitude": -95.488039,
    "latitude": 29.836717,
    "city": "Houston",
    "country": "US",
    "country_code": "USA"
}, {
    "@context": "/api/v1/contexts/location",
    "@id": "/api/v1/locations/58",
    "@type": "Location",
    "longitude": -78.0521,
    "latitude": 33.9534,
    "city": "Southport",
    "country": "US",
    "country_code": "USA"
}, {
    "@context": "/api/v1/contexts/location",
    "@id": "/api/v1/locations/59",
    "@type": "Location",
    "longitude": -89.13289,
    "latitude": 31.693611,
    "city": "Laurel",
    "country": "US",
    "country_code": "USA"
}, {
    "@context": "/api/v1/contexts/location",
    "@id": "/api/v1/locations/60",
    "@type": "Location",
    "longitude": -75.98443,
    "latitude": 36.84766,
    "city": "Virginia Beach",
    "country": "US",
    "country_code": "USA"
}, {
    "@context": "/api/v1/contexts/location",
    "@id": "/api/v1/locations/61",
    "@type": "Location",
    "longitude": 6.557915,
    "latitude": 51.295746,
    "city": "Terre Haute",
    "country": "US",
    "country_code": "USA"
}, {
    "@context": "/api/v1/contexts/location",
    "@id": "/api/v1/locations/62",
    "@type": "Location",
    "longitude": -87.020861,
    "latitude": 34.57757,
    "city": "Decatur",
    "country": "US",
    "country_code": "USA"
}, {
    "@context": "/api/v1/contexts/location",
    "@id": "/api/v1/locations/63",
    "@type": "Location",
    "longitude": -124.0607,
    "latitude": 44.63752,
    "city": "Newport",
    "country": "US",
    "country_code": "USA"
}, {
    "@context": "/api/v1/contexts/location",
    "@id": "/api/v1/locations/64",
    "@type": "Location",
    "longitude": -86.106875,
    "latitude": 42.78621,
    "city": "Holland",
    "country": "US",
    "country_code": "USA"
}, {
    "@context": "/api/v1/contexts/location",
    "@id": "/api/v1/locations/65",
    "@type": "Location",
    "longitude": -83.32794,
    "latitude": 44.407978,
    "city": "Oscoda",
    "country": "US",
    "country_code": "USA"
}, {
    "@context": "/api/v1/contexts/location",
    "@id": "/api/v1/locations/66",
    "@type": "Location",
    "longitude": -74.92503,
    "latitude": 40.189476,
    "city": "Langhorne",
    "country": "US",
    "country_code": "USA"
}, {
    "@context": "/api/v1/contexts/location",
    "@id": "/api/v1/locations/67",
    "@type": "Location",
    "longitude": 2.62598,
    "latitude": 39.5639,
    "city": "Clifton",
    "country": "US",
    "country_code": "USA"
}, {
    "@context": "/api/v1/contexts/location",
    "@id": "/api/v1/locations/68",
    "@type": "Location",
    "longitude": -76.13433,
    "latitude": 40.814148,
    "city": "Mahanoy City",
    "country": "US",
    "country_code": "USA"
}, {
    "@context": "/api/v1/contexts/location",
    "@id": "/api/v1/locations/69",
    "@type": "Location",
    "longitude": -77.485577,
    "latitude": 39.094056,
    "city": "Leesburg",
    "country": "US",
    "country_code": "USA"
}, {
    "@context": "/api/v1/contexts/location",
    "@id": "/api/v1/locations/70",
    "@type": "Location",
    "longitude": -84.27773,
    "latitude": 35.82745,
    "city": "Lenoir City",
    "country": "US",
    "country_code": "USA"
}, {
    "@context": "/api/v1/contexts/location",
    "@id": "/api/v1/locations/71",
    "@type": "Location",
    "longitude": -106.368201,
    "latitude": 39.6387,
    "city": "Vail",
    "country": "US",
    "country_code": "USA"
}, {
    "@context": "/api/v1/contexts/location",
    "@id": "/api/v1/locations/72",
    "@type": "Location",
    "longitude": -79.36981,
    "latitude": 34.43614,
    "city": "Dillon",
    "country": "US",
    "country_code": "USA"
}, {
    "@context": "/api/v1/contexts/location",
    "@id": "/api/v1/locations/73",
    "@type": "Location",
    "longitude": -105.22211,
    "latitude": 39.75622,
    "city": "Golden",
    "country": "US",
    "country_code": "USA"
}, {
    "@context": "/api/v1/contexts/location",
    "@id": "/api/v1/locations/74",
    "@type": "Location",
    "longitude": -77.355574,
    "latitude": 38.958709,
    "city": "Reston",
    "country": "US",
    "country_code": "USA"
}, {
    "@context": "/api/v1/contexts/location",
    "@id": "/api/v1/locations/75",
    "@type": "Location",
    "longitude": -112.182594,
    "latitude": 33.538586,
    "city": "Glendale",
    "country": "US",
    "country_code": "USA"
}, {
    "@context": "/api/v1/contexts/location",
    "@id": "/api/v1/locations/76",
    "@type": "Location",
    "longitude": -93.611822,
    "latitude": 33.683724,
    "city": "Hope",
    "country": "US",
    "country_code": "USA"
}, {
    "@context": "/api/v1/contexts/location",
    "@id": "/api/v1/locations/77",
    "@type": "Location",
    "longitude": -121.350807,
    "latitude": 38.00622,
    "city": "Stockton",
    "country": "US",
    "country_code": "USA"
}, {
    "@context": "/api/v1/contexts/location",
    "@id": "/api/v1/locations/78",
    "@type": "Location",
    "longitude": -94.57172,
    "latitude": 47.09124,
    "city": "Walker",
    "country": "US",
    "country_code": "USA"
}, {
    "@context": "/api/v1/contexts/location",
    "@id": "/api/v1/locations/79",
    "@type": "Location",
    "longitude": -120.17681,
    "latitude": 48.470364,
    "city": "Winthrop",
    "country": "US",
    "country_code": "USA"
}, {
    "@context": "/api/v1/contexts/location",
    "@id": "/api/v1/locations/80",
    "@type": "Location",
    "longitude": 11.251337,
    "latitude": 43.772349,
    "city": "Humeston",
    "country": "US",
    "country_code": "USA"
}, {
    "@context": "/api/v1/contexts/location",
    "@id": "/api/v1/locations/81",
    "@type": "Location",
    "longitude": -92.14079,
    "latitude": 37.8228,
    "city": "St. Robert",
    "country": "US",
    "country_code": "USA"
}, {
    "@context": "/api/v1/contexts/location",
    "@id": "/api/v1/locations/82",
    "@type": "Location",
    "longitude": -95.206568,
    "latitude": 29.773048,
    "city": "Houston",
    "country": "US",
    "country_code": "USA"
}, {
    "@context": "/api/v1/contexts/location",
    "@id": "/api/v1/locations/83",
    "@type": "Location",
    "longitude": -122.517879,
    "latitude": 37.929938,
    "city": "Corte Madera",
    "country": "US",
    "country_code": "USA"
}, {
    "@context": "/api/v1/contexts/location",
    "@id": "/api/v1/locations/84",
    "@type": "Location",
    "longitude": -122.22717,
    "latitude": 47.302352,
    "city": "Auburn",
    "country": "US",
    "country_code": "USA"
}, {
    "@context": "/api/v1/contexts/location",
    "@id": "/api/v1/locations/85",
    "@type": "Location",
    "longitude": -121.4938057,
    "latitude": 38.5802767,
    "city": "Sacramento",
    "country": "US",
    "country_code": "USA"
}, {
    "@context": "/api/v1/contexts/location",
    "@id": "/api/v1/locations/86",
    "@type": "Location",
    "longitude": -76.508315,
    "latitude": 42.436007,
    "city": "Ithaca",
    "country": "US",
    "country_code": "USA"
}, {
    "@context": "/api/v1/contexts/location",
    "@id": "/api/v1/locations/87",
    "@type": "Location",
    "longitude": -114.335838,
    "latitude": 48.391121,
    "city": "Whitefish",
    "country": "US",
    "country_code": "USA"
}, {
    "@context": "/api/v1/contexts/location",
    "@id": "/api/v1/locations/88",
    "@type": "Location",
    "longitude": -84.314667,
    "latitude": 33.843213,
    "city": "Atlanta",
    "country": "US",
    "country_code": "USA"
}, {
    "@context": "/api/v1/contexts/location",
    "@id": "/api/v1/locations/89",
    "@type": "Location",
    "longitude": -76.847257,
    "latitude": 39.176128,
    "city": "Columbia",
    "country": "US",
    "country_code": "USA"
}, {
    "@context": "/api/v1/contexts/location",
    "@id": "/api/v1/locations/90",
    "@type": "Location",
    "longitude": -123.37406,
    "latitude": 48.10485,
    "city": "Port Angeles",
    "country": "US",
    "country_code": "USA"
}, {
    "@context": "/api/v1/contexts/location",
    "@id": "/api/v1/locations/91",
    "@type": "Location",
    "longitude": -70.643174,
    "latitude": 44.96541,
    "city": "Rangeley",
    "country": "US",
    "country_code": "USA"
}, {
    "@context": "/api/v1/contexts/location",
    "@id": "/api/v1/locations/92",
    "@type": "Location",
    "longitude": -90.057002,
    "latitude": 37.967532,
    "city": "Sainte Genevieve",
    "country": "US",
    "country_code": "USA"
}, {
    "@context": "/api/v1/contexts/location",
    "@id": "/api/v1/locations/93",
    "@type": "Location",
    "longitude": -117.00283,
    "latitude": 34.89095,
    "city": "Barstow",
    "country": "US",
    "country_code": "USA"
}, {
    "@context": "/api/v1/contexts/location",
    "@id": "/api/v1/locations/94",
    "@type": "Location",
    "longitude": -80.84962,
    "latitude": 40.363297,
    "city": "Bloomingdale",
    "country": "US",
    "country_code": "USA"
}, {
    "@context": "/api/v1/contexts/location",
    "@id": "/api/v1/locations/95",
    "@type": "Location",
    "longitude": -83.891054,
    "latitude": 43.596927,
    "city": "Bay City",
    "country": "US",
    "country_code": "USA"
}, {
    "@context": "/api/v1/contexts/location",
    "@id": "/api/v1/locations/96",
    "@type": "Location",
    "longitude": -73.21555,
    "latitude": 44.47582,
    "city": "Burlington",
    "country": "US",
    "country_code": "USA"
}, {
    "@context": "/api/v1/contexts/location",
    "@id": "/api/v1/locations/97",
    "@type": "Location",
    "longitude": -80.072864,
    "latitude": 26.697607,
    "city": "West Palm Beach",
    "country": "US",
    "country_code": "USA"
}, {
    "@context": "/api/v1/contexts/location",
    "@id": "/api/v1/locations/98",
    "@type": "Location",
    "longitude": -89.34979,
    "latitude": 31.329254,
    "city": "Hattiesburg",
    "country": "US",
    "country_code": "USA"
}, {
    "@context": "/api/v1/contexts/location",
    "@id": "/api/v1/locations/99",
    "@type": "Location",
    "longitude": -70.81342,
    "latitude": 42.91046,
    "city": "Hampton",
    "country": "US",
    "country_code": "USA"
}, {
    "@context": "/api/v1/contexts/location",
    "@id": "/api/v1/locations/100",
    "@type": "Location",
    "longitude": -84.032555,
    "latitude": 44.180107,
    "city": "Prescott",
    "country": "US",
    "country_code": "USA"
}, {
    "@context": "/api/v1/contexts/location",
    "@id": "/api/v1/locations/101",
    "@type": "Location",
    "longitude": -114.8303,
    "latitude": 31.02996,
    "city": "Pittsville",
    "country": "US",
    "country_code": "USA"
}, {
    "@context": "/api/v1/contexts/location",
    "@id": "/api/v1/locations/102",
    "@type": "Location",
    "longitude": -102.561844,
    "latitude": 46.41884,
    "city": "Regent",
    "country": "US",
    "country_code": "USA"
}, {
    "@context": "/api/v1/contexts/location",
    "@id": "/api/v1/locations/103",
    "@type": "Location",
    "longitude": -87.955,
    "latitude": 41.81644,
    "city": "Westmont",
    "country": "US",
    "country_code": "USA"
}, {
    "@context": "/api/v1/contexts/location",
    "@id": "/api/v1/locations/104",
    "@type": "Location",
    "longitude": -85.225664,
    "latitude": 34.994744,
    "city": "Chattanooga",
    "country": "US",
    "country_code": "USA"
}, {
    "@context": "/api/v1/contexts/location",
    "@id": "/api/v1/locations/105",
    "@type": "Location",
    "longitude": -122.485944,
    "latitude": 48.781123,
    "city": "Bellingham",
    "country": "US",
    "country_code": "USA"
}, {
    "@context": "/api/v1/contexts/location",
    "@id": "/api/v1/locations/106",
    "@type": "Location",
    "longitude": -85.18146,
    "latitude": 35.250668,
    "city": "Soddy Daisy",
    "country": "US",
    "country_code": "USA"
}, {
    "@context": "/api/v1/contexts/location",
    "@id": "/api/v1/locations/107",
    "@type": "Location",
    "longitude": -93.129486,
    "latitude": 36.26049,
    "city": "Harrison",
    "country": "US",
    "country_code": "USA"
}, {
    "@context": "/api/v1/contexts/location",
    "@id": "/api/v1/locations/108",
    "@type": "Location",
    "longitude": -96.76286,
    "latitude": 44.31141,
    "city": "Brookings",
    "country": "US",
    "country_code": "USA"
}, {
    "@context": "/api/v1/contexts/location",
    "@id": "/api/v1/locations/109",
    "@type": "Location",
    "longitude": -102.33582,
    "latitude": 46.374714,
    "city": "Mott",
    "country": "US",
    "country_code": "USA"
}, {
    "@context": "/api/v1/contexts/location",
    "@id": "/api/v1/locations/110",
    "@type": "Location",
    "longitude": -110.70107,
    "latitude": 31.52159,
    "city": "Patagonia",
    "country": "US",
    "country_code": "USA"
}, {
    "@context": "/api/v1/contexts/location",
    "@id": "/api/v1/locations/111",
    "@type": "Location",
    "longitude": -107.872714,
    "latitude": 37.295963,
    "city": "Durango",
    "country": "US",
    "country_code": "USA"
}, {
    "@context": "/api/v1/contexts/location",
    "@id": "/api/v1/locations/112",
    "@type": "Location",
    "longitude": -109.08419,
    "latitude": 44.516968,
    "city": "Cody",
    "country": "US",
    "country_code": "USA"
}, {
    "@context": "/api/v1/contexts/location",
    "@id": "/api/v1/locations/113",
    "@type": "Location",
    "longitude": -108.58104,
    "latitude": 45.7522,
    "city": "Billings",
    "country": "US",
    "country_code": "USA"
}, {
    "@context": "/api/v1/contexts/location",
    "@id": "/api/v1/locations/114",
    "@type": "Location",
    "longitude": -97.06028,
    "latitude": 32.783764,
    "city": "Grand Prairie",
    "country": "US",
    "country_code": "USA"
}, {
    "@context": "/api/v1/contexts/location",
    "@id": "/api/v1/locations/115",
    "@type": "Location",
    "longitude": -76.758835,
    "latitude": 39.284878,
    "city": "Catonsville",
    "country": "US",
    "country_code": "USA"
}, {
    "@context": "/api/v1/contexts/location",
    "@id": "/api/v1/locations/116",
    "@type": "Location",
    "longitude": -110.909418,
    "latitude": 32.223615,
    "city": "Tucson",
    "country": "US",
    "country_code": "USA"
}, {
    "@context": "/api/v1/contexts/location",
    "@id": "/api/v1/locations/117",
    "@type": "Location",
    "longitude": -95.265008,
    "latitude": 32.322578,
    "city": "Tyler",
    "country": "US",
    "country_code": "USA"
}, {
    "@context": "/api/v1/contexts/location",
    "@id": "/api/v1/locations/118",
    "@type": "Location",
    "longitude": -84.127582,
    "latitude": 36.920051,
    "city": "Corbin",
    "country": "US",
    "country_code": "USA"
}, {
    "@context": "/api/v1/contexts/location",
    "@id": "/api/v1/locations/119",
    "@type": "Location",
    "longitude": -95.846871,
    "latitude": 36.265007,
    "city": "Owasso",
    "country": "US",
    "country_code": "USA"
}, {
    "@context": "/api/v1/contexts/location",
    "@id": "/api/v1/locations/120",
    "@type": "Location",
    "longitude": -122.50554,
    "latitude": 37.9443,
    "city": "Larkspur",
    "country": "US",
    "country_code": "USA"
}, {
    "@context": "/api/v1/contexts/location",
    "@id": "/api/v1/locations/121",
    "@type": "Location",
    "longitude": -122.480386,
    "latitude": 45.540782,
    "city": "Portland",
    "country": "US",
    "country_code": "USA"
}, {
    "@context": "/api/v1/contexts/location",
    "@id": "/api/v1/locations/122",
    "@type": "Location",
    "longitude": -82.171594,
    "latitude": 35.452157,
    "city": "Lake Lure",
    "country": "US",
    "country_code": "USA"
}, {
    "@context": "/api/v1/contexts/location",
    "@id": "/api/v1/locations/123",
    "@type": "Location",
    "longitude": -103.81389,
    "latitude": 44.48047,
    "city": "Spearfish",
    "country": "US",
    "country_code": "USA"
}, {
    "@context": "/api/v1/contexts/location",
    "@id": "/api/v1/locations/124",
    "@type": "Location",
    "longitude": -97.52609,
    "latitude": 42.19905,
    "city": "Pierce",
    "country": "US",
    "country_code": "USA"
}, {
    "@context": "/api/v1/contexts/location",
    "@id": "/api/v1/locations/125",
    "@type": "Location",
    "longitude": -122.35542,
    "latitude": 47.62332,
    "city": "Seattle",
    "country": "US",
    "country_code": "USA"
}, {
    "@context": "/api/v1/contexts/location",
    "@id": "/api/v1/locations/126",
    "@type": "Location",
    "longitude": -81.796281,
    "latitude": 26.683669,
    "city": "Fort Myers",
    "country": "US",
    "country_code": "USA"
}, {
    "@context": "/api/v1/contexts/location",
    "@id": "/api/v1/locations/127",
    "@type": "Location",
    "longitude": -87.25914,
    "latitude": 33.84603,
    "city": "Jasper",
    "country": "US",
    "country_code": "USA"
}, {
    "@context": "/api/v1/contexts/location",
    "@id": "/api/v1/locations/128",
    "@type": "Location",
    "longitude": -118.02875,
    "latitude": 33.858124,
    "city": "Buena Park",
    "country": "US",
    "country_code": "USA"
}, {
    "@context": "/api/v1/contexts/location",
    "@id": "/api/v1/locations/129",
    "@type": "Location",
    "longitude": -80.136986,
    "latitude": 26.10565,
    "city": "Fort Lauderdale",
    "country": "US",
    "country_code": "USA"
}, {
    "@context": "/api/v1/contexts/location",
    "@id": "/api/v1/locations/130",
    "@type": "Location",
    "longitude": -117.837279,
    "latitude": 33.67971,
    "city": "Irvine",
    "country": "US",
    "country_code": "USA"
}, {
    "@context": "/api/v1/contexts/location",
    "@id": "/api/v1/locations/131",
    "@type": "Location",
    "longitude": -94.29853,
    "latitude": 37.486855,
    "city": "Lamar",
    "country": "US",
    "country_code": "USA"
}, {
    "@context": "/api/v1/contexts/location",
    "@id": "/api/v1/locations/132",
    "@type": "Location",
    "longitude": -79.16931,
    "latitude": 41.83631,
    "city": "Warren",
    "country": "US",
    "country_code": "USA"
}, {
    "@context": "/api/v1/contexts/location",
    "@id": "/api/v1/locations/133",
    "@type": "Location",
    "longitude": -95.85734,
    "latitude": 46.82358,
    "city": "Detroit Lakes",
    "country": "US",
    "country_code": "USA"
}, {
    "@context": "/api/v1/contexts/location",
    "@id": "/api/v1/locations/134",
    "@type": "Location",
    "longitude": -108.727655,
    "latitude": 35.500383,
    "city": "Gallup",
    "country": "US",
    "country_code": "USA"
}, {
    "@context": "/api/v1/contexts/location",
    "@id": "/api/v1/locations/135",
    "@type": "Location",
    "longitude": -106.69324,
    "latitude": 35.08376,
    "city": "Albuquerque",
    "country": "US",
    "country_code": "USA"
}, {
    "@context": "/api/v1/contexts/location",
    "@id": "/api/v1/locations/136",
    "@type": "Location",
    "longitude": -118.99284,
    "latitude": 37.643192,
    "city": "Mammoth Lakes",
    "country": "US",
    "country_code": "USA"
}, {
    "@context": "/api/v1/contexts/location",
    "@id": "/api/v1/locations/137",
    "@type": "Location",
    "longitude": -76.53235,
    "latitude": 43.45161,
    "city": "Oswego",
    "country": "US",
    "country_code": "USA"
}, {
    "@context": "/api/v1/contexts/location",
    "@id": "/api/v1/locations/138",
    "@type": "Location",
    "longitude": -84.113282,
    "latitude": 36.580692,
    "city": "Jellico",
    "country": "US",
    "country_code": "USA"
}, {
    "@context": "/api/v1/contexts/location",
    "@id": "/api/v1/locations/139",
    "@type": "Location",
    "longitude": -90.899151,
    "latitude": 32.313601,
    "city": "Vicksburg",
    "country": "US",
    "country_code": "USA"
}, {
    "@context": "/api/v1/contexts/location",
    "@id": "/api/v1/locations/140",
    "@type": "Location",
    "longitude": -84.663734,
    "latitude": 45.027702,
    "city": "Gaylord",
    "country": "US",
    "country_code": "USA"
}, {
    "@context": "/api/v1/contexts/location",
    "@id": "/api/v1/locations/141",
    "@type": "Location",
    "longitude": -103.7299,
    "latitude": 44.376034,
    "city": "Deadwood",
    "country": "US",
    "country_code": "USA"
}, {
    "@context": "/api/v1/contexts/location",
    "@id": "/api/v1/locations/142",
    "@type": "Location",
    "longitude": -90.679098,
    "latitude": 38.800071,
    "city": "O Fallon",
    "country": "US",
    "country_code": "USA"
}, {
    "@context": "/api/v1/contexts/location",
    "@id": "/api/v1/locations/143",
    "@type": "Location",
    "longitude": -82.938687,
    "latitude": 32.487051,
    "city": "Dublin",
    "country": "US",
    "country_code": "USA"
}, {
    "@context": "/api/v1/contexts/location",
    "@id": "/api/v1/locations/144",
    "@type": "Location",
    "longitude": -117.150442,
    "latitude": 32.765811,
    "city": "San Diego",
    "country": "US",
    "country_code": "USA"
}, {
    "@context": "/api/v1/contexts/location",
    "@id": "/api/v1/locations/145",
    "@type": "Location",
    "longitude": -91.79702,
    "latitude": 43.291664,
    "city": "Decorah",
    "country": "US",
    "country_code": "USA"
}, {
    "@context": "/api/v1/contexts/location",
    "@id": "/api/v1/locations/146",
    "@type": "Location",
    "longitude": -97.13759,
    "latitude": 31.517883,
    "city": "Waco",
    "country": "US",
    "country_code": "USA"
}, {
    "@context": "/api/v1/contexts/location",
    "@id": "/api/v1/locations/147",
    "@type": "Location",
    "longitude": -121.435165,
    "latitude": 37.761502,
    "city": "Tracy",
    "country": "US",
    "country_code": "USA"
}, {
    "@context": "/api/v1/contexts/location",
    "@id": "/api/v1/locations/148",
    "@type": "Location",
    "longitude": -117.344319,
    "latitude": 33.16385,
    "city": "Carlsbad",
    "country": "US",
    "country_code": "USA"
}, {
    "@context": "/api/v1/contexts/location",
    "@id": "/api/v1/locations/149",
    "@type": "Location",
    "longitude": -89.95993,
    "latitude": 30.045267,
    "city": "New Orleans",
    "country": "US",
    "country_code": "USA"
}, {
    "@context": "/api/v1/contexts/location",
    "@id": "/api/v1/locations/150",
    "@type": "Location",
    "longitude": -123.930114,
    "latitude": 45.990632,
    "city": "Seaside",
    "country": "US",
    "country_code": "USA"
}, {
    "@context": "/api/v1/contexts/location",
    "@id": "/api/v1/locations/151",
    "@type": "Location",
    "longitude": -91.52781,
    "latitude": 31.61563,
    "city": "Ferriday",
    "country": "US",
    "country_code": "USA"
}, {
    "@context": "/api/v1/contexts/location",
    "@id": "/api/v1/locations/152",
    "@type": "Location",
    "longitude": -117.563225,
    "latitude": 34.068836,
    "city": "Ontario",
    "country": "US",
    "country_code": "USA"
}, {
    "@context": "/api/v1/contexts/location",
    "@id": "/api/v1/locations/153",
    "@type": "Location",
    "longitude": -81.41384,
    "latitude": 36.86846,
    "city": "Marion",
    "country": "US",
    "country_code": "USA"
}, {
    "@context": "/api/v1/contexts/location",
    "@id": "/api/v1/locations/154",
    "@type": "Location",
    "longitude": -99.484146,
    "latitude": 37.202297,
    "city": "Protection",
    "country": "US",
    "country_code": "USA"
}, {
    "@context": "/api/v1/contexts/location",
    "@id": "/api/v1/locations/155",
    "@type": "Location",
    "longitude": -92.66533,
    "latitude": 38.12717,
    "city": "Osage Beach",
    "country": "US",
    "country_code": "USA"
}, {
    "@context": "/api/v1/contexts/location",
    "@id": "/api/v1/locations/156",
    "@type": "Location",
    "longitude": -81.88776,
    "latitude": 35.330376,
    "city": "Forest City",
    "country": "US",
    "country_code": "USA"
}, {
    "@context": "/api/v1/contexts/location",
    "@id": "/api/v1/locations/157",
    "@type": "Location",
    "longitude": -109.547157,
    "latitude": 36.151195,
    "city": "Chinle",
    "country": "US",
    "country_code": "USA"
}, {
    "@context": "/api/v1/contexts/location",
    "@id": "/api/v1/locations/158",
    "@type": "Location",
    "longitude": -71.195984,
    "latitude": 43.577892,
    "city": "Wolfeboro",
    "country": "US",
    "country_code": "USA"
}, {
    "@context": "/api/v1/contexts/location",
    "@id": "/api/v1/locations/159",
    "@type": "Location",
    "longitude": -88.297515,
    "latitude": 39.681672,
    "city": "Arcola",
    "country": "US",
    "country_code": "USA"
}, {
    "@context": "/api/v1/contexts/location",
    "@id": "/api/v1/locations/160",
    "@type": "Location",
    "longitude": -71.46874,
    "latitude": 43.52591,
    "city": "Laconia",
    "country": "US",
    "country_code": "USA"
}, {
    "@context": "/api/v1/contexts/location",
    "@id": "/api/v1/locations/161",
    "@type": "Location",
    "longitude": -97.279915,
    "latitude": 32.788714,
    "city": "Haltom City",
    "country": "US",
    "country_code": "USA"
}, {
    "@context": "/api/v1/contexts/location",
    "@id": "/api/v1/locations/162",
    "@type": "Location",
    "longitude": -123.80287,
    "latitude": 39.426006,
    "city": "Fort Bragg",
    "country": "US",
    "country_code": "USA"
}, {
    "@context": "/api/v1/contexts/location",
    "@id": "/api/v1/locations/163",
    "@type": "Location",
    "longitude": -72.62555,
    "latitude": 42.12138,
    "city": "West Springfield",
    "country": "US",
    "country_code": "USA"
}, {
    "@context": "/api/v1/contexts/location",
    "@id": "/api/v1/locations/164",
    "@type": "Location",
    "longitude": null,
    "latitude": null,
    "city": "Casco",
    "country": "US",
    "country_code": "USA"
}, {
    "@context": "/api/v1/contexts/location",
    "@id": "/api/v1/locations/165",
    "@type": "Location",
    "longitude": -84.99398,
    "latitude": 40.439227,
    "city": "Portland",
    "country": "US",
    "country_code": "USA"
}, {
    "@context": "/api/v1/contexts/location",
    "@id": "/api/v1/locations/166",
    "@type": "Location",
    "longitude": -118.470236,
    "latitude": 40.185058,
    "city": "Lovelock",
    "country": "US",
    "country_code": "USA"
}, {
    "@context": "/api/v1/contexts/location",
    "@id": "/api/v1/locations/167",
    "@type": "Location",
    "longitude": -121.88308,
    "latitude": 45.69192,
    "city": "Stevenson",
    "country": "US",
    "country_code": "USA"
}, {
    "@context": "/api/v1/contexts/location",
    "@id": "/api/v1/locations/168",
    "@type": "Location",
    "longitude": -118.02351,
    "latitude": 33.83175,
    "city": "Cypress",
    "country": "US",
    "country_code": "USA"
}, {
    "@context": "/api/v1/contexts/location",
    "@id": "/api/v1/locations/169",
    "@type": "Location",
    "longitude": -79.49494,
    "latitude": 36.070038,
    "city": "Burlington",
    "country": "US",
    "country_code": "USA"
}, {
    "@context": "/api/v1/contexts/location",
    "@id": "/api/v1/locations/170",
    "@type": "Location",
    "longitude": -109.91349,
    "latitude": 31.443132,
    "city": "Bisbee",
    "country": "US",
    "country_code": "USA"
}, {
    "@context": "/api/v1/contexts/location",
    "@id": "/api/v1/locations/171",
    "@type": "Location",
    "longitude": -79.06031,
    "latitude": 33.840336,
    "city": "Conway",
    "country": "US",
    "country_code": "USA"
}, {
    "@context": "/api/v1/contexts/location",
    "@id": "/api/v1/locations/172",
    "@type": "Location",
    "longitude": -107.664163,
    "latitude": 37.810443,
    "city": "Silverton",
    "country": "US",
    "country_code": "USA"
}, {
    "@context": "/api/v1/contexts/location",
    "@id": "/api/v1/locations/173",
    "@type": "Location",
    "longitude": 18.051859,
    "latitude": 48.90024,
    "city": "Pasadena",
    "country": "US",
    "country_code": "USA"
}, {
    "@context": "/api/v1/contexts/location",
    "@id": "/api/v1/locations/174",
    "@type": "Location",
    "longitude": -80.331315,
    "latitude": 26.123981,
    "city": "Fort Lauderdale",
    "country": "US",
    "country_code": "USA"
}, {
    "@context": "/api/v1/contexts/location",
    "@id": "/api/v1/locations/175",
    "@type": "Location",
    "longitude": null,
    "latitude": null,
    "city": "Dillon",
    "country": "US",
    "country_code": "USA"
}, {
    "@context": "/api/v1/contexts/location",
    "@id": "/api/v1/locations/176",
    "@type": "Location",
    "longitude": -81.745577,
    "latitude": 33.565239,
    "city": "Aiken",
    "country": "US",
    "country_code": "USA"
}, {
    "@context": "/api/v1/contexts/location",
    "@id": "/api/v1/locations/177",
    "@type": "Location",
    "longitude": -89.439605,
    "latitude": 43.072693,
    "city": "Madison",
    "country": "US",
    "country_code": "USA"
}, {
    "@context": "/api/v1/contexts/location",
    "@id": "/api/v1/locations/178",
    "@type": "Location",
    "longitude": -79.274345,
    "latitude": 33.424242,
    "city": "Georgetown",
    "country": "US",
    "country_code": "USA"
}, {
    "@context": "/api/v1/contexts/location",
    "@id": "/api/v1/locations/179",
    "@type": "Location",
    "longitude": -109.949645,
    "latitude": 34.134802,
    "city": "Pinetop",
    "country": "US",
    "country_code": "USA"
}, {
    "@context": "/api/v1/contexts/location",
    "@id": "/api/v1/locations/180",
    "@type": "Location",
    "longitude": -121.791551,
    "latitude": 36.683665,
    "city": "Marina",
    "country": "US",
    "country_code": "USA"
}, {
    "@context": "/api/v1/contexts/location",
    "@id": "/api/v1/locations/181",
    "@type": "Location",
    "longitude": -100.040634,
    "latitude": 37.754002,
    "city": "Dodge City",
    "country": "US",
    "country_code": "USA"
}, {
    "@context": "/api/v1/contexts/location",
    "@id": "/api/v1/locations/182",
    "@type": "Location",
    "longitude": null,
    "latitude": null,
    "city": "Howe",
    "country": "US",
    "country_code": "USA"
}, {
    "@context": "/api/v1/contexts/location",
    "@id": "/api/v1/locations/183",
    "@type": "Location",
    "longitude": null,
    "latitude": null,
    "city": "Howe",
    "country": "US",
    "country_code": "USA"
}, {
    "@context": "/api/v1/contexts/location",
    "@id": "/api/v1/locations/184",
    "@type": "Location",
    "longitude": null,
    "latitude": null,
    "city": "Howe",
    "country": "US",
    "country_code": "USA"
}, {
    "@context": "/api/v1/contexts/location",
    "@id": "/api/v1/locations/185",
    "@type": "Location",
    "longitude": -87.329978,
    "latitude": 41.469446,
    "city": "Merrillville",
    "country": "US",
    "country_code": "USA"
}, {
    "@context": "/api/v1/contexts/location",
    "@id": "/api/v1/locations/186",
    "@type": "Location",
    "longitude": -79.7139,
    "latitude": 40.4461,
    "city": "Pittsburgh",
    "country": "US",
    "country_code": "USA"
}, {
    "@context": "/api/v1/contexts/location",
    "@id": "/api/v1/locations/187",
    "@type": "Location",
    "longitude": -95.558938,
    "latitude": 29.970456,
    "city": "Houston",
    "country": "US",
    "country_code": "USA"
}, {
    "@context": "/api/v1/contexts/location",
    "@id": "/api/v1/locations/188",
    "@type": "Location",
    "longitude": -84.61848,
    "latitude": 37.072174,
    "city": "Somerset",
    "country": "US",
    "country_code": "USA"
}, {
    "@context": "/api/v1/contexts/location",
    "@id": "/api/v1/locations/189",
    "@type": "Location",
    "longitude": -115.79993,
    "latitude": 40.831062,
    "city": "Elko",
    "country": "US",
    "country_code": "USA"
}, {
    "@context": "/api/v1/contexts/location",
    "@id": "/api/v1/locations/190",
    "@type": "Location",
    "longitude": -76.87629,
    "latitude": 38.66893,
    "city": "Brandywine",
    "country": "US",
    "country_code": "USA"
}, {
    "@context": "/api/v1/contexts/location",
    "@id": "/api/v1/locations/191",
    "@type": "Location",
    "longitude": 85.355959,
    "latitude": 27.7216,
    "city": "Alliance",
    "country": "US",
    "country_code": "USA"
}, {
    "@context": "/api/v1/contexts/location",
    "@id": "/api/v1/locations/192",
    "@type": "Location",
    "longitude": -70.81291,
    "latitude": 42.911366,
    "city": "Hampton",
    "country": "US",
    "country_code": "USA"
}, {
    "@context": "/api/v1/contexts/location",
    "@id": "/api/v1/locations/193",
    "@type": "Location",
    "longitude": -89.57642544,
    "latitude": 40.67221051,
    "city": "East Peoria",
    "country": "US",
    "country_code": "USA"
}, {
    "@context": "/api/v1/contexts/location",
    "@id": "/api/v1/locations/194",
    "@type": "Location",
    "longitude": -80.08641,
    "latitude": 26.934633,
    "city": "Jupiter",
    "country": "US",
    "country_code": "USA"
}, {
    "@context": "/api/v1/contexts/location",
    "@id": "/api/v1/locations/195",
    "@type": "Location",
    "longitude": -123.28994,
    "latitude": 42.9414,
    "city": "Canyonville",
    "country": "US",
    "country_code": "USA"
}, {
    "@context": "/api/v1/contexts/location",
    "@id": "/api/v1/locations/196",
    "@type": "Location",
    "longitude": -80.080429,
    "latitude": 42.046699,
    "city": "Erie",
    "country": "US",
    "country_code": "USA"
}, {
    "@context": "/api/v1/contexts/location",
    "@id": "/api/v1/locations/197",
    "@type": "Location",
    "longitude": -88.04958,
    "latitude": 45.841633,
    "city": "Iron Mountain",
    "country": "US",
    "country_code": "USA"
}, {
    "@context": "/api/v1/contexts/location",
    "@id": "/api/v1/locations/198",
    "@type": "Location",
    "longitude": -76.9319,
    "latitude": 38.99565,
    "city": "College Park",
    "country": "US",
    "country_code": "USA"
}, {
    "@context": "/api/v1/contexts/location",
    "@id": "/api/v1/locations/199",
    "@type": "Location",
    "longitude": null,
    "latitude": null,
    "city": "Young",
    "country": "US",
    "country_code": "USA"
}, {
    "@context": "/api/v1/contexts/location",
    "@id": "/api/v1/locations/200",
    "@type": "Location",
    "longitude": -124.203261,
    "latitude": 41.747799,
    "city": "Crescent City",
    "country": "US",
    "country_code": "USA"
}, {
    "@context": "/api/v1/contexts/location",
    "@id": "/api/v1/locations/201",
    "@type": "Location",
    "longitude": 22.890106,
    "latitude": 37.531556,
    "city": "Glen Burnie",
    "country": "US",
    "country_code": "USA"
}, {
    "@context": "/api/v1/contexts/location",
    "@id": "/api/v1/locations/202",
    "@type": "Location",
    "longitude": -101.473816,
    "latitude": 36.689533,
    "city": "Guymon",
    "country": "US",
    "country_code": "USA"
}, {
    "@context": "/api/v1/contexts/location",
    "@id": "/api/v1/locations/203",
    "@type": "Location",
    "longitude": -77.04455,
    "latitude": 38.80474,
    "city": "Alexandria",
    "country": "US",
    "country_code": "USA"
}, {
    "@context": "/api/v1/contexts/location",
    "@id": "/api/v1/locations/204",
    "@type": "Location",
    "longitude": -87.62626,
    "latitude": 41.886337,
    "city": "Chicago",
    "country": "US",
    "country_code": "USA"
}, {
    "@context": "/api/v1/contexts/location",
    "@id": "/api/v1/locations/205",
    "@type": "Location",
    "longitude": -76.717039,
    "latitude": 38.942771,
    "city": "Bowie",
    "country": "US",
    "country_code": "USA"
}, {
    "@context": "/api/v1/contexts/location",
    "@id": "/api/v1/locations/206",
    "@type": "Location",
    "longitude": -97.7154,
    "latitude": 31.433666,
    "city": "Gatesville",
    "country": "US",
    "country_code": "USA"
}, {
    "@context": "/api/v1/contexts/location",
    "@id": "/api/v1/locations/207",
    "@type": "Location",
    "longitude": -159.33808,
    "latitude": 22.042716,
    "city": "Kapaa",
    "country": "US",
    "country_code": "USA"
}, {
    "@context": "/api/v1/contexts/location",
    "@id": "/api/v1/locations/208",
    "@type": "Location",
    "longitude": -89.79881,
    "latitude": 35.03565,
    "city": "Memphis",
    "country": "US",
    "country_code": "USA"
}, {
    "@context": "/api/v1/contexts/location",
    "@id": "/api/v1/locations/209",
    "@type": "Location",
    "longitude": -84.869776,
    "latitude": 35.210384,
    "city": "Cleveland",
    "country": "US",
    "country_code": "USA"
}, {
    "@context": "/api/v1/contexts/location",
    "@id": "/api/v1/locations/210",
    "@type": "Location",
    "longitude": -107.850865,
    "latitude": 37.933273,
    "city": "Telluride",
    "country": "US",
    "country_code": "USA"
}, {
    "@context": "/api/v1/contexts/location",
    "@id": "/api/v1/locations/211",
    "@type": "Location",
    "longitude": -90.071143,
    "latitude": 29.952146,
    "city": "New Orleans",
    "country": "US",
    "country_code": "USA"
}, {
    "@context": "/api/v1/contexts/location",
    "@id": "/api/v1/locations/212",
    "@type": "Location",
    "longitude": -97.92181,
    "latitude": 36.39085,
    "city": "Enid",
    "country": "US",
    "country_code": "USA"
}, {
    "@context": "/api/v1/contexts/location",
    "@id": "/api/v1/locations/213",
    "@type": "Location",
    "longitude": -81.787918,
    "latitude": 26.331369,
    "city": "Bonita Springs",
    "country": "US",
    "country_code": "USA"
}, {
    "@context": "/api/v1/contexts/location",
    "@id": "/api/v1/locations/214",
    "@type": "Location",
    "longitude": -104.992635,
    "latitude": 39.915086,
    "city": "Denver",
    "country": "US",
    "country_code": "USA"
}, {
    "@context": "/api/v1/contexts/location",
    "@id": "/api/v1/locations/215",
    "@type": "Location",
    "longitude": -77.21426,
    "latitude": 40.18661,
    "city": "Carlisle",
    "country": "US",
    "country_code": "USA"
}, {
    "@context": "/api/v1/contexts/location",
    "@id": "/api/v1/locations/216",
    "@type": "Location",
    "longitude": -91.607,
    "latitude": 41.70064,
    "city": "Coralville",
    "country": "US",
    "country_code": "USA"
}, {
    "@context": "/api/v1/contexts/location",
    "@id": "/api/v1/locations/217",
    "@type": "Location",
    "longitude": -93.50884,
    "latitude": 44.80142,
    "city": "Shakopee",
    "country": "US",
    "country_code": "USA"
}, {
    "@context": "/api/v1/contexts/location",
    "@id": "/api/v1/locations/218",
    "@type": "Location",
    "longitude": -121.01571,
    "latitude": 37.11165,
    "city": "Gustine",
    "country": "US",
    "country_code": "USA"
}, {
    "@context": "/api/v1/contexts/location",
    "@id": "/api/v1/locations/219",
    "@type": "Location",
    "longitude": -78.96096,
    "latitude": 35.07617,
    "city": "Fayetteville",
    "country": "US",
    "country_code": "USA"
}, {
    "@context": "/api/v1/contexts/location",
    "@id": "/api/v1/locations/220",
    "@type": "Location",
    "longitude": -94.684165,
    "latitude": 39.307376,
    "city": "Kansas City",
    "country": "US",
    "country_code": "USA"
}, {
    "@context": "/api/v1/contexts/location",
    "@id": "/api/v1/locations/221",
    "@type": "Location",
    "longitude": -76.50707,
    "latitude": 38.47525,
    "city": "Saint Leonard",
    "country": "US",
    "country_code": "USA"
}, {
    "@context": "/api/v1/contexts/location",
    "@id": "/api/v1/locations/222",
    "@type": "Location",
    "longitude": -104.866775,
    "latitude": 39.408529,
    "city": "Castle Rock",
    "country": "US",
    "country_code": "USA"
}, {
    "@context": "/api/v1/contexts/location",
    "@id": "/api/v1/locations/223",
    "@type": "Location",
    "longitude": -94.824007,
    "latitude": 38.847727,
    "city": "Olathe",
    "country": "US",
    "country_code": "USA"
}, {
    "@context": "/api/v1/contexts/location",
    "@id": "/api/v1/locations/224",
    "@type": "Location",
    "longitude": -84.267209,
    "latitude": 39.184318,
    "city": "Milford",
    "country": "US",
    "country_code": "USA"
}, {
    "@context": "/api/v1/contexts/location",
    "@id": "/api/v1/locations/225",
    "@type": "Location",
    "longitude": -105.89536,
    "latitude": 37.47547,
    "city": "Alamosa",
    "country": "US",
    "country_code": "USA"
}, {
    "@context": "/api/v1/contexts/location",
    "@id": "/api/v1/locations/226",
    "@type": "Location",
    "longitude": null,
    "latitude": null,
    "city": "Viburnum",
    "country": "US",
    "country_code": "USA"
}, {
    "@context": "/api/v1/contexts/location",
    "@id": "/api/v1/locations/227",
    "@type": "Location",
    "longitude": -81.455546,
    "latitude": 28.482007,
    "city": "Orlando",
    "country": "US",
    "country_code": "USA"
}, {
    "@context": "/api/v1/contexts/location",
    "@id": "/api/v1/locations/228",
    "@type": "Location",
    "longitude": -89.953575,
    "latitude": 37.8827,
    "city": "Saint Mary",
    "country": "US",
    "country_code": "USA"
}, {
    "@context": "/api/v1/contexts/location",
    "@id": "/api/v1/locations/229",
    "@type": "Location",
    "longitude": -99.146719,
    "latitude": 19.43517,
    "city": "Bristol",
    "country": "US",
    "country_code": "USA"
}, {
    "@context": "/api/v1/contexts/location",
    "@id": "/api/v1/locations/230",
    "@type": "Location",
    "longitude": -79.392412,
    "latitude": 35.197103,
    "city": "Southern Pines",
    "country": "US",
    "country_code": "USA"
}, {
    "@context": "/api/v1/contexts/location",
    "@id": "/api/v1/locations/231",
    "@type": "Location",
    "longitude": -86.533195,
    "latitude": 39.18581,
    "city": "Bloomington",
    "country": "US",
    "country_code": "USA"
}, {
    "@context": "/api/v1/contexts/location",
    "@id": "/api/v1/locations/232",
    "@type": "Location",
    "longitude": -84.108375,
    "latitude": 37.145106,
    "city": "London",
    "country": "US",
    "country_code": "USA"
}, {
    "@context": "/api/v1/contexts/location",
    "@id": "/api/v1/locations/233",
    "@type": "Location",
    "longitude": -80.853663,
    "latitude": 28.552433,
    "city": "Titusville",
    "country": "US",
    "country_code": "USA"
}, {
    "@context": "/api/v1/contexts/location",
    "@id": "/api/v1/locations/234",
    "@type": "Location",
    "longitude": -85.697774,
    "latitude": 38.066499,
    "city": "Shepherdsville",
    "country": "US",
    "country_code": "USA"
}, {
    "@context": "/api/v1/contexts/location",
    "@id": "/api/v1/locations/235",
    "@type": "Location",
    "longitude": -81.801459,
    "latitude": 24.556827,
    "city": "Key West",
    "country": "US",
    "country_code": "USA"
}, {
    "@context": "/api/v1/contexts/location",
    "@id": "/api/v1/locations/236",
    "@type": "Location",
    "longitude": -93.079983,
    "latitude": 39.765741,
    "city": "Brookfield",
    "country": "US",
    "country_code": "USA"
}, {
    "@context": "/api/v1/contexts/location",
    "@id": "/api/v1/locations/237",
    "@type": "Location",
    "longitude": 106.823673,
    "latitude": -6.195424,
    "city": "Staten Island",
    "country": "US",
    "country_code": "USA"
}, {
    "@context": "/api/v1/contexts/location",
    "@id": "/api/v1/locations/238",
    "@type": "Location",
    "longitude": -78.74249,
    "latitude": 42.98961,
    "city": "Hobart",
    "country": "US",
    "country_code": "USA"
}, {
    "@context": "/api/v1/contexts/location",
    "@id": "/api/v1/locations/239",
    "@type": "Location",
    "longitude": -119.88103,
    "latitude": 37.811924,
    "city": "Groveland",
    "country": "US",
    "country_code": "USA"
}, {
    "@context": "/api/v1/contexts/location",
    "@id": "/api/v1/locations/240",
    "@type": "Location",
    "longitude": -89.12880845,
    "latitude": 38.97034343,
    "city": "Vandalia",
    "country": "US",
    "country_code": "USA"
}, {
    "@context": "/api/v1/contexts/location",
    "@id": "/api/v1/locations/241",
    "@type": "Location",
    "longitude": -97.958775,
    "latitude": 26.171754,
    "city": "Weslaco",
    "country": "US",
    "country_code": "USA"
}, {
    "@context": "/api/v1/contexts/location",
    "@id": "/api/v1/locations/242",
    "@type": "Location",
    "longitude": -115.751013,
    "latitude": 40.843764,
    "city": "Elko",
    "country": "US",
    "country_code": "USA"
}, {
    "@context": "/api/v1/contexts/location",
    "@id": "/api/v1/locations/243",
    "@type": "Location",
    "longitude": 15.060435,
    "latitude": 37.52297,
    "city": "San Jose",
    "country": "US",
    "country_code": "USA"
}, {
    "@context": "/api/v1/contexts/location",
    "@id": "/api/v1/locations/244",
    "@type": "Location",
    "longitude": -82.739762,
    "latitude": 28.115091,
    "city": "Palm Harbor",
    "country": "US",
    "country_code": "USA"
}, {
    "@context": "/api/v1/contexts/location",
    "@id": "/api/v1/locations/245",
    "@type": "Location",
    "longitude": 8.914842,
    "latitude": 41.679122,
    "city": "Manassas",
    "country": "US",
    "country_code": "USA"
}, {
    "@context": "/api/v1/contexts/location",
    "@id": "/api/v1/locations/246",
    "@type": "Location",
    "longitude": -90.06636,
    "latitude": 29.962454,
    "city": "New Orleans",
    "country": "US",
    "country_code": "USA"
}, {
    "@context": "/api/v1/contexts/location",
    "@id": "/api/v1/locations/247",
    "@type": "Location",
    "longitude": -74.5452,
    "latitude": 40.55109,
    "city": "Somerset",
    "country": "US",
    "country_code": "USA"
}, {
    "@context": "/api/v1/contexts/location",
    "@id": "/api/v1/locations/248",
    "@type": "Location",
    "longitude": -95.116243,
    "latitude": 43.856357,
    "city": "Windom",
    "country": "US",
    "country_code": "USA"
}, {
    "@context": "/api/v1/contexts/location",
    "@id": "/api/v1/locations/249",
    "@type": "Location",
    "longitude": -73.76084,
    "latitude": 40.761604,
    "city": "Bayside",
    "country": "US",
    "country_code": "USA"
}, {
    "@context": "/api/v1/contexts/location",
    "@id": "/api/v1/locations/250",
    "@type": "Location",
    "longitude": -93.70201,
    "latitude": 32.52313,
    "city": "Bossier City",
    "country": "US",
    "country_code": "USA"
}, {
    "@context": "/api/v1/contexts/location",
    "@id": "/api/v1/locations/251",
    "@type": "Location",
    "longitude": -105.674432,
    "latitude": 33.351721,
    "city": "Ruidoso",
    "country": "US",
    "country_code": "USA"
}, {
    "@context": "/api/v1/contexts/location",
    "@id": "/api/v1/locations/252",
    "@type": "Location",
    "longitude": -96.55681,
    "latitude": 39.18027,
    "city": "Manhattan",
    "country": "US",
    "country_code": "USA"
}, {
    "@context": "/api/v1/contexts/location",
    "@id": "/api/v1/locations/253",
    "@type": "Location",
    "longitude": -90.019974,
    "latitude": 38.641903,
    "city": "Caseyville",
    "country": "US",
    "country_code": "USA"
}, {
    "@context": "/api/v1/contexts/location",
    "@id": "/api/v1/locations/254",
    "@type": "Location",
    "longitude": -96.669808,
    "latitude": 34.786299,
    "city": "Ada",
    "country": "US",
    "country_code": "USA"
}, {
    "@context": "/api/v1/contexts/location",
    "@id": "/api/v1/locations/255",
    "@type": "Location",
    "longitude": -75.42649,
    "latitude": 43.00021,
    "city": "Deansboro",
    "country": "US",
    "country_code": "USA"
}, {
    "@context": "/api/v1/contexts/location",
    "@id": "/api/v1/locations/256",
    "@type": "Location",
    "longitude": -71.42781,
    "latitude": 41.84353,
    "city": "Providence",
    "country": "US",
    "country_code": "USA"
}, {
    "@context": "/api/v1/contexts/location",
    "@id": "/api/v1/locations/257",
    "@type": "Location",
    "longitude": -122.288533,
    "latitude": 38.283329,
    "city": "Napa",
    "country": "US",
    "country_code": "USA"
}, {
    "@context": "/api/v1/contexts/location",
    "@id": "/api/v1/locations/258",
    "@type": "Location",
    "longitude": -97.744278,
    "latitude": 30.416106,
    "city": "Austin",
    "country": "US",
    "country_code": "USA"
}, {
    "@context": "/api/v1/contexts/location",
    "@id": "/api/v1/locations/259",
    "@type": "Location",
    "longitude": -122.6828,
    "latitude": 45.52085,
    "city": "Portland",
    "country": "US",
    "country_code": "USA"
}, {
    "@context": "/api/v1/contexts/location",
    "@id": "/api/v1/locations/260",
    "@type": "Location",
    "longitude": -87.6413,
    "latitude": 41.880368,
    "city": "Chicago",
    "country": "US",
    "country_code": "USA"
}, {
    "@context": "/api/v1/contexts/location",
    "@id": "/api/v1/locations/261",
    "@type": "Location",
    "longitude": -84.36962,
    "latitude": 35.50645,
    "city": "Madisonville",
    "country": "US",
    "country_code": "USA"
}, {
    "@context": "/api/v1/contexts/location",
    "@id": "/api/v1/locations/262",
    "@type": "Location",
    "longitude": -71.56098,
    "latitude": 44.266968,
    "city": "Twin Mountain",
    "country": "US",
    "country_code": "USA"
}, {
    "@context": "/api/v1/contexts/location",
    "@id": "/api/v1/locations/263",
    "@type": "Location",
    "longitude": -80.106043,
    "latitude": 40.45133,
    "city": "Pittsburgh",
    "country": "US",
    "country_code": "USA"
}, {
    "@context": "/api/v1/contexts/location",
    "@id": "/api/v1/locations/264",
    "@type": "Location",
    "longitude": -74.530457,
    "latitude": 39.447342,
    "city": "Absecon",
    "country": "US",
    "country_code": "USA"
}, {
    "@context": "/api/v1/contexts/location",
    "@id": "/api/v1/locations/265",
    "@type": "Location",
    "longitude": -71.24301,
    "latitude": 43.262497,
    "city": "Northwood",
    "country": "US",
    "country_code": "USA"
}, {
    "@context": "/api/v1/contexts/location",
    "@id": "/api/v1/locations/266",
    "@type": "Location",
    "longitude": -88.12569,
    "latitude": 37.073742,
    "city": "Kuttawa",
    "country": "US",
    "country_code": "USA"
}, {
    "@context": "/api/v1/contexts/location",
    "@id": "/api/v1/locations/267",
    "@type": "Location",
    "longitude": -0.658295,
    "latitude": 45.054526,
    "city": "Lake Worth",
    "country": "US",
    "country_code": "USA"
}, {
    "@context": "/api/v1/contexts/location",
    "@id": "/api/v1/locations/268",
    "@type": "Location",
    "longitude": -98.48179,
    "latitude": 29.50357,
    "city": "San Antonio",
    "country": "US",
    "country_code": "USA"
}, {
    "@context": "/api/v1/contexts/location",
    "@id": "/api/v1/locations/269",
    "@type": "Location",
    "longitude": -111.900889,
    "latitude": 40.62079,
    "city": "Midvale",
    "country": "US",
    "country_code": "USA"
}, {
    "@context": "/api/v1/contexts/location",
    "@id": "/api/v1/locations/270",
    "@type": "Location",
    "longitude": -79.002934,
    "latitude": 34.669878,
    "city": "Lumberton",
    "country": "US",
    "country_code": "USA"
}, {
    "@context": "/api/v1/contexts/location",
    "@id": "/api/v1/locations/271",
    "@type": "Location",
    "longitude": -70.980637,
    "latitude": 44.016433,
    "city": "Fryeburg",
    "country": "US",
    "country_code": "USA"
}, {
    "@context": "/api/v1/contexts/location",
    "@id": "/api/v1/locations/272",
    "@type": "Location",
    "longitude": -81.91773,
    "latitude": 40.554265,
    "city": "Millersburg",
    "country": "US",
    "country_code": "USA"
}, {
    "@context": "/api/v1/contexts/location",
    "@id": "/api/v1/locations/273",
    "@type": "Location",
    "longitude": -83.55146,
    "latitude": 35.86827,
    "city": "Sevierville",
    "country": "US",
    "country_code": "USA"
}, {
    "@context": "/api/v1/contexts/location",
    "@id": "/api/v1/locations/274",
    "@type": "Location",
    "longitude": -98.42784,
    "latitude": 45.459026,
    "city": "Aberdeen",
    "country": "US",
    "country_code": "USA"
}, {
    "@context": "/api/v1/contexts/location",
    "@id": "/api/v1/locations/275",
    "@type": "Location",
    "longitude": -121.814181,
    "latitude": 37.701428,
    "city": "Livermore",
    "country": "US",
    "country_code": "USA"
}, {
    "@context": "/api/v1/contexts/location",
    "@id": "/api/v1/locations/276",
    "@type": "Location",
    "longitude": -81.79447,
    "latitude": 24.54733,
    "city": "Key West",
    "country": "US",
    "country_code": "USA"
}, {
    "@context": "/api/v1/contexts/location",
    "@id": "/api/v1/locations/277",
    "@type": "Location",
    "longitude": -106.65298,
    "latitude": 35.12073,
    "city": "Albuquerque",
    "country": "US",
    "country_code": "USA"
}, {
    "@context": "/api/v1/contexts/location",
    "@id": "/api/v1/locations/278",
    "@type": "Location",
    "longitude": 7.558972,
    "latitude": 45.057607,
    "city": "New York",
    "country": "US",
    "country_code": "USA"
}, {
    "@context": "/api/v1/contexts/location",
    "@id": "/api/v1/locations/279",
    "@type": "Location",
    "longitude": 1.153677,
    "latitude": 41.08352,
    "city": "Stone Creek",
    "country": "US",
    "country_code": "USA"
}, {
    "@context": "/api/v1/contexts/location",
    "@id": "/api/v1/locations/280",
    "@type": "Location",
    "longitude": -100.85452,
    "latitude": 32.388258,
    "city": "Colorado City",
    "country": "US",
    "country_code": "USA"
}, {
    "@context": "/api/v1/contexts/location",
    "@id": "/api/v1/locations/281",
    "@type": "Location",
    "longitude": null,
    "latitude": null,
    "city": "New York",
    "country": "US",
    "country_code": "USA"
}, {
    "@context": "/api/v1/contexts/location",
    "@id": "/api/v1/locations/282",
    "@type": "Location",
    "longitude": null,
    "latitude": null,
    "city": "New York",
    "country": "US",
    "country_code": "USA"
}, {
    "@context": "/api/v1/contexts/location",
    "@id": "/api/v1/locations/283",
    "@type": "Location",
    "longitude": -73.26543,
    "latitude": 40.806018,
    "city": "Hauppauge",
    "country": "US",
    "country_code": "USA"
}, {
    "@context": "/api/v1/contexts/location",
    "@id": "/api/v1/locations/284",
    "@type": "Location",
    "longitude": -80.29879,
    "latitude": 36.07896,
    "city": "Winston Salem",
    "country": "US",
    "country_code": "USA"
}, {
    "@context": "/api/v1/contexts/location",
    "@id": "/api/v1/locations/285",
    "@type": "Location",
    "longitude": -103.534561,
    "latitude": 43.943866,
    "city": "Hill City",
    "country": "US",
    "country_code": "USA"
}, {
    "@context": "/api/v1/contexts/location",
    "@id": "/api/v1/locations/286",
    "@type": "Location",
    "longitude": -89.79189,
    "latitude": 35.20632,
    "city": "Memphis",
    "country": "US",
    "country_code": "USA"
}, {
    "@context": "/api/v1/contexts/location",
    "@id": "/api/v1/locations/287",
    "@type": "Location",
    "longitude": -80.87268,
    "latitude": 35.44025,
    "city": "Huntersville",
    "country": "US",
    "country_code": "USA"
}, {
    "@context": "/api/v1/contexts/location",
    "@id": "/api/v1/locations/288",
    "@type": "Location",
    "longitude": -104.981704,
    "latitude": 40.158007,
    "city": "Longmont",
    "country": "US",
    "country_code": "USA"
}, {
    "@context": "/api/v1/contexts/location",
    "@id": "/api/v1/locations/289",
    "@type": "Location",
    "longitude": -100.55091,
    "latitude": 42.871143,
    "city": "Valentine",
    "country": "US",
    "country_code": "USA"
}, {
    "@context": "/api/v1/contexts/location",
    "@id": "/api/v1/locations/290",
    "@type": "Location",
    "longitude": -104.84949,
    "latitude": 41.11915,
    "city": "Cheyenne",
    "country": "US",
    "country_code": "USA"
}, {
    "@context": "/api/v1/contexts/location",
    "@id": "/api/v1/locations/291",
    "@type": "Location",
    "longitude": -83.97584,
    "latitude": 34.52495,
    "city": "Dahlonega",
    "country": "US",
    "country_code": "USA"
}, {
    "@context": "/api/v1/contexts/location",
    "@id": "/api/v1/locations/292",
    "@type": "Location",
    "longitude": -73.33482,
    "latitude": 42.238323,
    "city": "Great Barrington",
    "country": "US",
    "country_code": "USA"
}, {
    "@context": "/api/v1/contexts/location",
    "@id": "/api/v1/locations/293",
    "@type": "Location",
    "longitude": -81.998825,
    "latitude": 39.35401,
    "city": "Athens",
    "country": "US",
    "country_code": "USA"
}, {
    "@context": "/api/v1/contexts/location",
    "@id": "/api/v1/locations/294",
    "@type": "Location",
    "longitude": -104.983568,
    "latitude": 39.744501,
    "city": "Denver",
    "country": "US",
    "country_code": "USA"
}, {
    "@context": "/api/v1/contexts/location",
    "@id": "/api/v1/locations/295",
    "@type": "Location",
    "longitude": -89.02539,
    "latitude": 40.481496,
    "city": "Bloomington",
    "country": "US",
    "country_code": "USA"
}, {
    "@context": "/api/v1/contexts/location",
    "@id": "/api/v1/locations/296",
    "@type": "Location",
    "longitude": -112.85909,
    "latitude": 42.776073,
    "city": "American Falls",
    "country": "US",
    "country_code": "USA"
}, {
    "@context": "/api/v1/contexts/location",
    "@id": "/api/v1/locations/297",
    "@type": "Location",
    "longitude": -82.85883,
    "latitude": 41.52469,
    "city": "Port Clinton",
    "country": "US",
    "country_code": "USA"
}, {
    "@context": "/api/v1/contexts/location",
    "@id": "/api/v1/locations/298",
    "@type": "Location",
    "longitude": -80.058094,
    "latitude": 26.464654,
    "city": "Delray Beach",
    "country": "US",
    "country_code": "USA"
}, {
    "@context": "/api/v1/contexts/location",
    "@id": "/api/v1/locations/299",
    "@type": "Location",
    "longitude": -68.810204,
    "latitude": 44.791314,
    "city": "Bangor",
    "country": "US",
    "country_code": "USA"
}, {
    "@context": "/api/v1/contexts/location",
    "@id": "/api/v1/locations/300",
    "@type": "Location",
    "longitude": -75.65106,
    "latitude": 40.80952,
    "city": "Palmerton",
    "country": "US",
    "country_code": "USA"
}, {
    "@context": "/api/v1/contexts/location",
    "@id": "/api/v1/locations/301",
    "@type": "Location",
    "longitude": -76.15138,
    "latitude": 39.97231,
    "city": "Strasburg",
    "country": "US",
    "country_code": "USA"
}, {
    "@context": "/api/v1/contexts/location",
    "@id": "/api/v1/locations/302",
    "@type": "Location",
    "longitude": -77.00576,
    "latitude": 42.8566,
    "city": "Geneva",
    "country": "US",
    "country_code": "USA"
}, {
    "@context": "/api/v1/contexts/location",
    "@id": "/api/v1/locations/303",
    "@type": "Location",
    "longitude": 11.298293,
    "latitude": 43.801897,
    "city": "Ames",
    "country": "US",
    "country_code": "USA"
}, {
    "@context": "/api/v1/contexts/location",
    "@id": "/api/v1/locations/304",
    "@type": "Location",
    "longitude": -99.401614,
    "latitude": 35.386405,
    "city": "Elk City",
    "country": "US",
    "country_code": "USA"
}, {
    "@context": "/api/v1/contexts/location",
    "@id": "/api/v1/locations/305",
    "@type": "Location",
    "longitude": -117.167651,
    "latitude": 32.724488,
    "city": "San Diego",
    "country": "US",
    "country_code": "USA"
}, {
    "@context": "/api/v1/contexts/location",
    "@id": "/api/v1/locations/306",
    "@type": "Location",
    "longitude": -79.097809,
    "latitude": 33.470477,
    "city": "Pawleys Island",
    "country": "US",
    "country_code": "USA"
}, {
    "@context": "/api/v1/contexts/location",
    "@id": "/api/v1/locations/307",
    "@type": "Location",
    "longitude": -90.411665,
    "latitude": 34.819119,
    "city": "Robinsonville",
    "country": "US",
    "country_code": "USA"
}, {
    "@context": "/api/v1/contexts/location",
    "@id": "/api/v1/locations/308",
    "@type": "Location",
    "longitude": -122.31429,
    "latitude": 47.66143,
    "city": "Seattle",
    "country": "US",
    "country_code": "USA"
}, {
    "@context": "/api/v1/contexts/location",
    "@id": "/api/v1/locations/309",
    "@type": "Location",
    "longitude": -91.98766,
    "latitude": 37.461372,
    "city": "Licking",
    "country": "US",
    "country_code": "USA"
}, {
    "@context": "/api/v1/contexts/location",
    "@id": "/api/v1/locations/310",
    "@type": "Location",
    "longitude": -90.161739,
    "latitude": 46.463291,
    "city": "Ironwood",
    "country": "US",
    "country_code": "USA"
}, {
    "@context": "/api/v1/contexts/location",
    "@id": "/api/v1/locations/311",
    "@type": "Location",
    "longitude": -89.274311,
    "latitude": 45.914957,
    "city": "Eagle River",
    "country": "US",
    "country_code": "USA"
}, {
    "@context": "/api/v1/contexts/location",
    "@id": "/api/v1/locations/312",
    "@type": "Location",
    "longitude": -88.037895,
    "latitude": 15.499006,
    "city": "Annapolis",
    "country": "US",
    "country_code": "USA"
}, {
    "@context": "/api/v1/contexts/location",
    "@id": "/api/v1/locations/313",
    "@type": "Location",
    "longitude": -124.0137872,
    "latitude": 44.98465469,
    "city": "Lincoln City",
    "country": "US",
    "country_code": "USA"
}, {
    "@context": "/api/v1/contexts/location",
    "@id": "/api/v1/locations/314",
    "@type": "Location",
    "longitude": -83.010776,
    "latitude": 42.628861,
    "city": "Utica",
    "country": "US",
    "country_code": "USA"
}, {
    "@context": "/api/v1/contexts/location",
    "@id": "/api/v1/locations/315",
    "@type": "Location",
    "longitude": -4.503823,
    "latitude": 36.610974,
    "city": "Abbeville",
    "country": "US",
    "country_code": "USA"
}, {
    "@context": "/api/v1/contexts/location",
    "@id": "/api/v1/locations/316",
    "@type": "Location",
    "longitude": 28.978276,
    "latitude": 41.011854,
    "city": "Naples",
    "country": "US",
    "country_code": "USA"
}, {
    "@context": "/api/v1/contexts/location",
    "@id": "/api/v1/locations/317",
    "@type": "Location",
    "longitude": -88.8607,
    "latitude": 44.27578,
    "city": "Fremont",
    "country": "US",
    "country_code": "USA"
}, {
    "@context": "/api/v1/contexts/location",
    "@id": "/api/v1/locations/318",
    "@type": "Location",
    "longitude": -4.426402,
    "latitude": 36.714936,
    "city": "Ballentine",
    "country": "US",
    "country_code": "USA"
}, {
    "@context": "/api/v1/contexts/location",
    "@id": "/api/v1/locations/319",
    "@type": "Location",
    "longitude": -122.29774,
    "latitude": 47.841274,
    "city": "Lynnwood",
    "country": "US",
    "country_code": "USA"
}, {
    "@context": "/api/v1/contexts/location",
    "@id": "/api/v1/locations/320",
    "@type": "Location",
    "longitude": -83.041229,
    "latitude": 42.334646,
    "city": "Detroit",
    "country": "US",
    "country_code": "USA"
}, {
    "@context": "/api/v1/contexts/location",
    "@id": "/api/v1/locations/321",
    "@type": "Location",
    "longitude": -92.64586,
    "latitude": 41.32402,
    "city": "Oskaloosa",
    "country": "US",
    "country_code": "USA"
}, {
    "@context": "/api/v1/contexts/location",
    "@id": "/api/v1/locations/322",
    "@type": "Location",
    "longitude": -86.95516,
    "latitude": 36.07851,
    "city": "Nashville",
    "country": "US",
    "country_code": "USA"
}, {
    "@context": "/api/v1/contexts/location",
    "@id": "/api/v1/locations/323",
    "@type": "Location",
    "longitude": -118.45369,
    "latitude": 33.987299,
    "city": "Marina Del Rey",
    "country": "US",
    "country_code": "USA"
}, {
    "@context": "/api/v1/contexts/location",
    "@id": "/api/v1/locations/324",
    "@type": "Location",
    "longitude": -83.46169,
    "latitude": 35.41966,
    "city": "Bryson City",
    "country": "US",
    "country_code": "USA"
}, {
    "@context": "/api/v1/contexts/location",
    "@id": "/api/v1/locations/325",
    "@type": "Location",
    "longitude": -72.962371,
    "latitude": 43.59359,
    "city": "Rutland",
    "country": "US",
    "country_code": "USA"
}, {
    "@context": "/api/v1/contexts/location",
    "@id": "/api/v1/locations/326",
    "@type": "Location",
    "longitude": -115.146375,
    "latitude": 36.171617,
    "city": "Las Vegas",
    "country": "US",
    "country_code": "USA"
}, {
    "@context": "/api/v1/contexts/location",
    "@id": "/api/v1/locations/327",
    "@type": "Location",
    "longitude": -116.40588,
    "latitude": 33.798553,
    "city": "Rancho Mirage",
    "country": "US",
    "country_code": "USA"
}, {
    "@context": "/api/v1/contexts/location",
    "@id": "/api/v1/locations/328",
    "@type": "Location",
    "longitude": -98.9245,
    "latitude": 36.144417,
    "city": "Seiling",
    "country": "US",
    "country_code": "USA"
}, {
    "@context": "/api/v1/contexts/location",
    "@id": "/api/v1/locations/329",
    "@type": "Location",
    "longitude": -82.42733,
    "latitude": 36.37389,
    "city": "Johnson City",
    "country": "US",
    "country_code": "USA"
}, {
    "@context": "/api/v1/contexts/location",
    "@id": "/api/v1/locations/330",
    "@type": "Location",
    "longitude": -88.04079,
    "latitude": 30.68811,
    "city": "Mobile",
    "country": "US",
    "country_code": "USA"
}, {
    "@context": "/api/v1/contexts/location",
    "@id": "/api/v1/locations/331",
    "@type": "Location",
    "longitude": -97.329861,
    "latitude": 36.288362,
    "city": "Perry",
    "country": "US",
    "country_code": "USA"
}, {
    "@context": "/api/v1/contexts/location",
    "@id": "/api/v1/locations/332",
    "@type": "Location",
    "longitude": -96.857314,
    "latitude": 32.643793,
    "city": "Dallas",
    "country": "US",
    "country_code": "USA"
}, {
    "@context": "/api/v1/contexts/location",
    "@id": "/api/v1/locations/333",
    "@type": "Location",
    "longitude": -84.29196,
    "latitude": 33.28714,
    "city": "Griffin",
    "country": "US",
    "country_code": "USA"
}, {
    "@context": "/api/v1/contexts/location",
    "@id": "/api/v1/locations/334",
    "@type": "Location",
    "longitude": -76.821103,
    "latitude": 40.277723,
    "city": "Harrisburg",
    "country": "US",
    "country_code": "USA"
}, {
    "@context": "/api/v1/contexts/location",
    "@id": "/api/v1/locations/335",
    "@type": "Location",
    "longitude": -155.237305,
    "latitude": 19.426996,
    "city": "Volcano",
    "country": "US",
    "country_code": "USA"
}, {
    "@context": "/api/v1/contexts/location",
    "@id": "/api/v1/locations/336",
    "@type": "Location",
    "longitude": -97.168512,
    "latitude": 32.979373,
    "city": "Roanoke",
    "country": "US",
    "country_code": "USA"
}, {
    "@context": "/api/v1/contexts/location",
    "@id": "/api/v1/locations/337",
    "@type": "Location",
    "longitude": -102.2781229,
    "latitude": 39.29873832,
    "city": "Burlington",
    "country": "US",
    "country_code": "USA"
}, {
    "@context": "/api/v1/contexts/location",
    "@id": "/api/v1/locations/338",
    "@type": "Location",
    "longitude": -80.166405,
    "latitude": 26.211905,
    "city": "Pompano Beach",
    "country": "US",
    "country_code": "USA"
}, {
    "@context": "/api/v1/contexts/location",
    "@id": "/api/v1/locations/339",
    "@type": "Location",
    "longitude": -123.88225,
    "latitude": 45.68964,
    "city": "Wheeler",
    "country": "US",
    "country_code": "USA"
}, {
    "@context": "/api/v1/contexts/location",
    "@id": "/api/v1/locations/340",
    "@type": "Location",
    "longitude": -79.956245,
    "latitude": 39.630993,
    "city": "Morgantown",
    "country": "US",
    "country_code": "USA"
}, {
    "@context": "/api/v1/contexts/location",
    "@id": "/api/v1/locations/341",
    "@type": "Location",
    "longitude": -92.66761,
    "latitude": 37.65888,
    "city": "Lebanon",
    "country": "US",
    "country_code": "USA"
}, {
    "@context": "/api/v1/contexts/location",
    "@id": "/api/v1/locations/342",
    "@type": "Location",
    "longitude": -79.931668,
    "latitude": 40.453283,
    "city": "Pittsburgh",
    "country": "US",
    "country_code": "USA"
}, {
    "@context": "/api/v1/contexts/location",
    "@id": "/api/v1/locations/343",
    "@type": "Location",
    "longitude": -78.645195,
    "latitude": 33.82734,
    "city": "North Myrtle Beach",
    "country": "US",
    "country_code": "USA"
}, {
    "@context": "/api/v1/contexts/location",
    "@id": "/api/v1/locations/344",
    "@type": "Location",
    "longitude": -79.60615,
    "latitude": 40.22014,
    "city": "New Stanton",
    "country": "US",
    "country_code": "USA"
}, {
    "@context": "/api/v1/contexts/location",
    "@id": "/api/v1/locations/345",
    "@type": "Location",
    "longitude": -84.51029,
    "latitude": 35.87883,
    "city": "Kingston",
    "country": "US",
    "country_code": "USA"
}, {
    "@context": "/api/v1/contexts/location",
    "@id": "/api/v1/locations/346",
    "@type": "Location",
    "longitude": null,
    "latitude": null,
    "city": "Concan",
    "country": "US",
    "country_code": "USA"
}, {
    "@context": "/api/v1/contexts/location",
    "@id": "/api/v1/locations/347",
    "@type": "Location",
    "longitude": -116.097702,
    "latitude": 44.910785,
    "city": "Mccall",
    "country": "US",
    "country_code": "USA"
}, {
    "@context": "/api/v1/contexts/location",
    "@id": "/api/v1/locations/348",
    "@type": "Location",
    "longitude": -95.621864,
    "latitude": 43.635653,
    "city": "Worthington",
    "country": "US",
    "country_code": "USA"
}, {
    "@context": "/api/v1/contexts/location",
    "@id": "/api/v1/locations/349",
    "@type": "Location",
    "longitude": -84.716395,
    "latitude": 33.75146,
    "city": "Douglasville",
    "country": "US",
    "country_code": "USA"
}, {
    "@context": "/api/v1/contexts/location",
    "@id": "/api/v1/locations/350",
    "@type": "Location",
    "longitude": -92.98395,
    "latitude": 43.681877,
    "city": "Austin",
    "country": "US",
    "country_code": "USA"
}, {
    "@context": "/api/v1/contexts/location",
    "@id": "/api/v1/locations/351",
    "@type": "Location",
    "longitude": -103.814575,
    "latitude": 44.478751,
    "city": "Spearfish",
    "country": "US",
    "country_code": "USA"
}, {
    "@context": "/api/v1/contexts/location",
    "@id": "/api/v1/locations/352",
    "@type": "Location",
    "longitude": -92.590965,
    "latitude": 36.382416,
    "city": "Bull Shoals",
    "country": "US",
    "country_code": "USA"
}, {
    "@context": "/api/v1/contexts/location",
    "@id": "/api/v1/locations/353",
    "@type": "Location",
    "longitude": -79.947005,
    "latitude": 37.256149,
    "city": "Roanoke",
    "country": "US",
    "country_code": "USA"
}, {
    "@context": "/api/v1/contexts/location",
    "@id": "/api/v1/locations/354",
    "@type": "Location",
    "longitude": 9.071522086,
    "latitude": 45.42665054,
    "city": "Washington",
    "country": "US",
    "country_code": "USA"
}, {
    "@context": "/api/v1/contexts/location",
    "@id": "/api/v1/locations/355",
    "@type": "Location",
    "longitude": -67.85834,
    "latitude": 45.706852,
    "city": "Danforth",
    "country": "US",
    "country_code": "USA"
}, {
    "@context": "/api/v1/contexts/location",
    "@id": "/api/v1/locations/356",
    "@type": "Location",
    "longitude": -77.47601,
    "latitude": 37.93338,
    "city": "Ruther Glen",
    "country": "US",
    "country_code": "USA"
}, {
    "@context": "/api/v1/contexts/location",
    "@id": "/api/v1/locations/357",
    "@type": "Location",
    "longitude": -109.930688,
    "latitude": 22.875315,
    "city": "Virginia Beach",
    "country": "US",
    "country_code": "USA"
}, {
    "@context": "/api/v1/contexts/location",
    "@id": "/api/v1/locations/358",
    "@type": "Location",
    "longitude": -77.850866,
    "latitude": 39.29304,
    "city": "Charles Town",
    "country": "US",
    "country_code": "USA"
}, {
    "@context": "/api/v1/contexts/location",
    "@id": "/api/v1/locations/359",
    "@type": "Location",
    "longitude": -91.65231,
    "latitude": 42.03019,
    "city": "Cedar Rapids",
    "country": "US",
    "country_code": "USA"
}, {
    "@context": "/api/v1/contexts/location",
    "@id": "/api/v1/locations/360",
    "@type": "Location",
    "longitude": -104.95052,
    "latitude": 44.264012,
    "city": "Moorcroft",
    "country": "US",
    "country_code": "USA"
}, {
    "@context": "/api/v1/contexts/location",
    "@id": "/api/v1/locations/361",
    "@type": "Location",
    "longitude": -89.913938,
    "latitude": 38.734557,
    "city": "Troy",
    "country": "US",
    "country_code": "USA"
}, {
    "@context": "/api/v1/contexts/location",
    "@id": "/api/v1/locations/362",
    "@type": "Location",
    "longitude": -74.00145,
    "latitude": 40.70806,
    "city": "New York",
    "country": "US",
    "country_code": "USA"
}, {
    "@context": "/api/v1/contexts/location",
    "@id": "/api/v1/locations/363",
    "@type": "Location",
    "longitude": -99.76546,
    "latitude": 32.40399,
    "city": "Abilene",
    "country": "US",
    "country_code": "USA"
}, {
    "@context": "/api/v1/contexts/location",
    "@id": "/api/v1/locations/364",
    "@type": "Location",
    "longitude": -106.81712,
    "latitude": 39.1859,
    "city": "Aspen",
    "country": "US",
    "country_code": "USA"
}, {
    "@context": "/api/v1/contexts/location",
    "@id": "/api/v1/locations/365",
    "@type": "Location",
    "longitude": -78.440755,
    "latitude": 36.334415,
    "city": "Henderson",
    "country": "US",
    "country_code": "USA"
}, {
    "@context": "/api/v1/contexts/location",
    "@id": "/api/v1/locations/366",
    "@type": "Location",
    "longitude": -85.97723,
    "latitude": 41.73513,
    "city": "Elkhart",
    "country": "US",
    "country_code": "USA"
}, {
    "@context": "/api/v1/contexts/location",
    "@id": "/api/v1/locations/367",
    "@type": "Location",
    "longitude": -74.931078,
    "latitude": 42.701214,
    "city": "Cooperstown",
    "country": "US",
    "country_code": "USA"
}, {
    "@context": "/api/v1/contexts/location",
    "@id": "/api/v1/locations/368",
    "@type": "Location",
    "longitude": -78.395267,
    "latitude": 40.49514,
    "city": "Altoona",
    "country": "US",
    "country_code": "USA"
}, {
    "@context": "/api/v1/contexts/location",
    "@id": "/api/v1/locations/369",
    "@type": "Location",
    "longitude": -70.261804,
    "latitude": 41.657447,
    "city": "West Yarmouth",
    "country": "US",
    "country_code": "USA"
}, {
    "@context": "/api/v1/contexts/location",
    "@id": "/api/v1/locations/370",
    "@type": "Location",
    "longitude": -121.83713,
    "latitude": 39.72602,
    "city": "Chico",
    "country": "US",
    "country_code": "USA"
}, {
    "@context": "/api/v1/contexts/location",
    "@id": "/api/v1/locations/371",
    "@type": "Location",
    "longitude": -109.05777,
    "latitude": 44.52608,
    "city": "Cody",
    "country": "US",
    "country_code": "USA"
}, {
    "@context": "/api/v1/contexts/location",
    "@id": "/api/v1/locations/372",
    "@type": "Location",
    "longitude": 15.293988,
    "latitude": 37.850643,
    "city": "Medina",
    "country": "US",
    "country_code": "USA"
}, {
    "@context": "/api/v1/contexts/location",
    "@id": "/api/v1/locations/373",
    "@type": "Location",
    "longitude": -80.246321,
    "latitude": 26.096485,
    "city": "Fort Lauderdale",
    "country": "US",
    "country_code": "USA"
}, {
    "@context": "/api/v1/contexts/location",
    "@id": "/api/v1/locations/374",
    "@type": "Location",
    "longitude": -70.28407,
    "latitude": 45.68028,
    "city": "Jackman",
    "country": "US",
    "country_code": "USA"
}, {
    "@context": "/api/v1/contexts/location",
    "@id": "/api/v1/locations/375",
    "@type": "Location",
    "longitude": -92.610975,
    "latitude": 36.105263,
    "city": "Yellville",
    "country": "US",
    "country_code": "USA"
}, {
    "@context": "/api/v1/contexts/location",
    "@id": "/api/v1/locations/376",
    "@type": "Location",
    "longitude": -83.722511,
    "latitude": 32.805482,
    "city": "Macon",
    "country": "US",
    "country_code": "USA"
}, {
    "@context": "/api/v1/contexts/location",
    "@id": "/api/v1/locations/377",
    "@type": "Location",
    "longitude": -81.648827,
    "latitude": 30.479833,
    "city": "Jacksonville",
    "country": "US",
    "country_code": "USA"
}, {
    "@context": "/api/v1/contexts/location",
    "@id": "/api/v1/locations/378",
    "@type": "Location",
    "longitude": -84.189419,
    "latitude": 39.849845,
    "city": "Dayton",
    "country": "US",
    "country_code": "USA"
}, {
    "@context": "/api/v1/contexts/location",
    "@id": "/api/v1/locations/379",
    "@type": "Location",
    "longitude": -89.8086,
    "latitude": 35.20486,
    "city": "Memphis",
    "country": "US",
    "country_code": "USA"
}, {
    "@context": "/api/v1/contexts/location",
    "@id": "/api/v1/locations/380",
    "@type": "Location",
    "longitude": -107.86844,
    "latitude": 37.30421,
    "city": "Durango",
    "country": "US",
    "country_code": "USA"
}, {
    "@context": "/api/v1/contexts/location",
    "@id": "/api/v1/locations/381",
    "@type": "Location",
    "longitude": -93.23993,
    "latitude": 44.85201,
    "city": "Minneapolis",
    "country": "US",
    "country_code": "USA"
}, {
    "@context": "/api/v1/contexts/location",
    "@id": "/api/v1/locations/382",
    "@type": "Location",
    "longitude": -88.43277,
    "latitude": 42.303436,
    "city": "Woodstock",
    "country": "US",
    "country_code": "USA"
}, {
    "@context": "/api/v1/contexts/location",
    "@id": "/api/v1/locations/383",
    "@type": "Location",
    "longitude": -84.398014,
    "latitude": 33.79156,
    "city": "Atlanta",
    "country": "US",
    "country_code": "USA"
}, {
    "@context": "/api/v1/contexts/location",
    "@id": "/api/v1/locations/384",
    "@type": "Location",
    "longitude": -95.361488,
    "latitude": 29.752848,
    "city": "Houston",
    "country": "US",
    "country_code": "USA"
}, {
    "@context": "/api/v1/contexts/location",
    "@id": "/api/v1/locations/385",
    "@type": "Location",
    "longitude": -92.46476,
    "latitude": 46.713882,
    "city": "Cloquet",
    "country": "US",
    "country_code": "USA"
}, {
    "@context": "/api/v1/contexts/location",
    "@id": "/api/v1/locations/386",
    "@type": "Location",
    "longitude": -88.9672,
    "latitude": 42.27388,
    "city": "Rockford",
    "country": "US",
    "country_code": "USA"
}, {
    "@context": "/api/v1/contexts/location",
    "@id": "/api/v1/locations/387",
    "@type": "Location",
    "longitude": -92.18473,
    "latitude": 30.953453,
    "city": "Bunkie",
    "country": "US",
    "country_code": "USA"
}, {
    "@context": "/api/v1/contexts/location",
    "@id": "/api/v1/locations/388",
    "@type": "Location",
    "longitude": -83.71964,
    "latitude": 32.81274,
    "city": "Macon",
    "country": "US",
    "country_code": "USA"
}, {
    "@context": "/api/v1/contexts/location",
    "@id": "/api/v1/locations/389",
    "@type": "Location",
    "longitude": -116.9435,
    "latitude": 44.02586,
    "city": "Ontario",
    "country": "US",
    "country_code": "USA"
}, {
    "@context": "/api/v1/contexts/location",
    "@id": "/api/v1/locations/390",
    "@type": "Location",
    "longitude": -1.124223,
    "latitude": 37.981858,
    "city": "Norcross",
    "country": "US",
    "country_code": "USA"
}, {
    "@context": "/api/v1/contexts/location",
    "@id": "/api/v1/locations/391",
    "@type": "Location",
    "longitude": -96.37438,
    "latitude": 42.50763,
    "city": "Sioux City",
    "country": "US",
    "country_code": "USA"
}, {
    "@context": "/api/v1/contexts/location",
    "@id": "/api/v1/locations/392",
    "@type": "Location",
    "longitude": -122.003242,
    "latitude": 37.352307,
    "city": "Sunnyvale",
    "country": "US",
    "country_code": "USA"
}, {
    "@context": "/api/v1/contexts/location",
    "@id": "/api/v1/locations/393",
    "@type": "Location",
    "longitude": 9.988144,
    "latitude": 53.566245,
    "city": "Ashburn",
    "country": "US",
    "country_code": "USA"
}, {
    "@context": "/api/v1/contexts/location",
    "@id": "/api/v1/locations/394",
    "@type": "Location",
    "longitude": -77.00991,
    "latitude": 38.97528,
    "city": "Takoma Park",
    "country": "US",
    "country_code": "USA"
}, {
    "@context": "/api/v1/contexts/location",
    "@id": "/api/v1/locations/395",
    "@type": "Location",
    "longitude": -97.98694,
    "latitude": 30.373974,
    "city": "Austin",
    "country": "US",
    "country_code": "USA"
}, {
    "@context": "/api/v1/contexts/location",
    "@id": "/api/v1/locations/396",
    "@type": "Location",
    "longitude": -101.742208,
    "latitude": 35.194703,
    "city": "Amarillo",
    "country": "US",
    "country_code": "USA"
}, {
    "@context": "/api/v1/contexts/location",
    "@id": "/api/v1/locations/397",
    "@type": "Location",
    "longitude": -86.822972,
    "latitude": 35.911253,
    "city": "Franklin",
    "country": "US",
    "country_code": "USA"
}, {
    "@context": "/api/v1/contexts/location",
    "@id": "/api/v1/locations/398",
    "@type": "Location",
    "longitude": -80.08916,
    "latitude": 40.40608,
    "city": "Carnegie",
    "country": "US",
    "country_code": "USA"
}, {
    "@context": "/api/v1/contexts/location",
    "@id": "/api/v1/locations/399",
    "@type": "Location",
    "longitude": -70.81505,
    "latitude": 42.902237,
    "city": "Hampton",
    "country": "US",
    "country_code": "USA"
}, {
    "@context": "/api/v1/contexts/location",
    "@id": "/api/v1/locations/400",
    "@type": "Location",
    "longitude": -122.436031,
    "latitude": 37.799801,
    "city": "San Francisco",
    "country": "US",
    "country_code": "USA"
}, {
    "@context": "/api/v1/contexts/location",
    "@id": "/api/v1/locations/401",
    "@type": "Location",
    "longitude": -73.824065,
    "latitude": 44.364186,
    "city": "Wilmington",
    "country": "US",
    "country_code": "USA"
}, {
    "@context": "/api/v1/contexts/location",
    "@id": "/api/v1/locations/402",
    "@type": "Location",
    "longitude": -83.01189,
    "latitude": 40.11387,
    "city": "Columbus",
    "country": "US",
    "country_code": "USA"
}, {
    "@context": "/api/v1/contexts/location",
    "@id": "/api/v1/locations/403",
    "@type": "Location",
    "longitude": -94.446189,
    "latitude": 43.676471,
    "city": "Fairmont",
    "country": "US",
    "country_code": "USA"
}, {
    "@context": "/api/v1/contexts/location",
    "@id": "/api/v1/locations/404",
    "@type": "Location",
    "longitude": -114.89076,
    "latitude": 39.24836,
    "city": "Ely",
    "country": "US",
    "country_code": "USA"
}, {
    "@context": "/api/v1/contexts/location",
    "@id": "/api/v1/locations/405",
    "@type": "Location",
    "longitude": -105.90579,
    "latitude": 37.48132,
    "city": "Alamosa",
    "country": "US",
    "country_code": "USA"
}, {
    "@context": "/api/v1/contexts/location",
    "@id": "/api/v1/locations/406",
    "@type": "Location",
    "longitude": -77.17851,
    "latitude": 38.7756,
    "city": "Springfield",
    "country": "US",
    "country_code": "USA"
}, {
    "@context": "/api/v1/contexts/location",
    "@id": "/api/v1/locations/407",
    "@type": "Location",
    "longitude": -121.527419,
    "latitude": 39.903822,
    "city": "Stirling City",
    "country": "US",
    "country_code": "USA"
}, {
    "@context": "/api/v1/contexts/location",
    "@id": "/api/v1/locations/408",
    "@type": "Location",
    "longitude": -81.08055,
    "latitude": 24.711823,
    "city": "Marathon",
    "country": "US",
    "country_code": "USA"
}, {
    "@context": "/api/v1/contexts/location",
    "@id": "/api/v1/locations/409",
    "@type": "Location",
    "longitude": -86.5871,
    "latitude": 32.802624,
    "city": "Clanton",
    "country": "US",
    "country_code": "USA"
}, {
    "@context": "/api/v1/contexts/location",
    "@id": "/api/v1/locations/410",
    "@type": "Location",
    "longitude": -90.15817,
    "latitude": 35.160223,
    "city": "West Memphis",
    "country": "US",
    "country_code": "USA"
}, {
    "@context": "/api/v1/contexts/location",
    "@id": "/api/v1/locations/411",
    "@type": "Location",
    "longitude": -80.15937,
    "latitude": 26.23112,
    "city": "Pompano Beach",
    "country": "US",
    "country_code": "USA"
}, {
    "@context": "/api/v1/contexts/location",
    "@id": "/api/v1/locations/412",
    "@type": "Location",
    "longitude": -93.82771,
    "latitude": 32.47119,
    "city": "Shreveport",
    "country": "US",
    "country_code": "USA"
}, {
    "@context": "/api/v1/contexts/location",
    "@id": "/api/v1/locations/413",
    "@type": "Location",
    "longitude": -80.69679,
    "latitude": 37.07262,
    "city": "Dublin",
    "country": "US",
    "country_code": "USA"
}, {
    "@context": "/api/v1/contexts/location",
    "@id": "/api/v1/locations/414",
    "@type": "Location",
    "longitude": -85.6692,
    "latitude": 42.82547,
    "city": "Byron Center",
    "country": "US",
    "country_code": "USA"
}, {
    "@context": "/api/v1/contexts/location",
    "@id": "/api/v1/locations/415",
    "@type": "Location",
    "longitude": -87.953952,
    "latitude": 41.846704,
    "city": "Oak Brook",
    "country": "US",
    "country_code": "USA"
}, {
    "@context": "/api/v1/contexts/location",
    "@id": "/api/v1/locations/416",
    "@type": "Location",
    "longitude": -86.25733,
    "latitude": 39.910885,
    "city": "Indianapolis",
    "country": "US",
    "country_code": "USA"
}, {
    "@context": "/api/v1/contexts/location",
    "@id": "/api/v1/locations/417",
    "@type": "Location",
    "longitude": -80.98843,
    "latitude": 35.987297,
    "city": "Statesville",
    "country": "US",
    "country_code": "USA"
}, {
    "@context": "/api/v1/contexts/location",
    "@id": "/api/v1/locations/418",
    "@type": "Location",
    "longitude": 8.760921,
    "latitude": 50.106529,
    "city": "Northbrook",
    "country": "US",
    "country_code": "USA"
}, {
    "@context": "/api/v1/contexts/location",
    "@id": "/api/v1/locations/419",
    "@type": "Location",
    "longitude": -78.78996,
    "latitude": 35.73348,
    "city": "Cary",
    "country": "US",
    "country_code": "USA"
}, {
    "@context": "/api/v1/contexts/location",
    "@id": "/api/v1/locations/420",
    "@type": "Location",
    "longitude": -83.67237,
    "latitude": 32.61835,
    "city": "Warner Robins",
    "country": "US",
    "country_code": "USA"
}, {
    "@context": "/api/v1/contexts/location",
    "@id": "/api/v1/locations/421",
    "@type": "Location",
    "longitude": -89.922673,
    "latitude": 34.30856,
    "city": "Batesville",
    "country": "US",
    "country_code": "USA"
},